id,ident,type,name,latitude_deg,longitude_deg,elevation_ft,continent,country_name,iso_country,region_name,iso_region,local_region,municipality,scheduled_service,gps_code,iata_code,local_code,home_link,wikipedia_link,keywords,score,last_updated
5910,SBGR,large_airport,"Guarulhos - Governador André Franco Montoro International Airport",-23.431944,-46.467778,2461,SA,Brazil,BR,"São Paulo",BR-SP,SP,"São Paulo",1,SBGR,GRU,SP0002,http://www.aeroportoguarulhos.net/,https://en.wikipedia.org/wiki/S%C3%A3o_Paulo-Guarulhos_International_Airport,Cumbica,1016675,2021-10-28T15:52:55+00:00
5906,SBGL,large_airport,"Rio Galeão – Tom Jobim International Airport",-22.809999,-43.250557,28,SA,Brazil,BR,"Rio de Janeiro",BR-RJ,RJ,"Rio De Janeiro",1,SBGL,GIG,RJ0001,https://www.riogaleao.com/passageiros,https://en.wikipedia.org/wiki/Rio_de_Janeiro-Gale%C3%A3o_International_Airport,"Galeão - Antônio Carlos Jobim International Airport",51475,2024-05-09T15:04:08+00:00
5974,SBSP,medium_airport,"Congonhas Airport",-23.627657,-46.654601,2631,SA,Brazil,BR,"São Paulo",BR-SP,SP,"São Paulo",1,SBSP,CGH,SP0001,http://www.infraero.gov.br/usa/aero_prev_home.php?ai=219,https://en.wikipedia.org/wiki/Congonhas-S%C3%A3o_Paulo_International_Airport,http://www.infraero.gov.br/usa/aero_prev_home.php?ai=219,750,2022-05-03T20:10:35+00:00
5967,SBRJ,medium_airport,"Santos Dumont Airport",-22.9105,-43.163101,11,SA,Brazil,BR,"Rio de Janeiro",BR-RJ,RJ,"Rio de Janeiro",1,SBRJ,SDU,RJ0002,https://www4.infraero.gov.br/aeroportos/aeroporto-do-rio-de-janeiro-santos-dumont/,https://en.wikipedia.org/wiki/Santos_Dumont_Airport,RIO,750,2022-03-28T23:27:00+00:00
5872,SBBR,large_airport,"Presidente Juscelino Kubitschek International Airport",-15.869167,-47.920834,3497,SA,Brazil,BR,"Distrito Federal",BR-DF,DF,Brasília,1,SBBR,BSB,DF0001,http://www.infraero.gov.br/usa/aero_prev_home.php?ai=146,https://en.wikipedia.org/wiki/Bras%C3%ADlia_International_Airport,,51275,2020-08-24T11:15:12+00:00
5977,SBSV,large_airport,"Deputado Luiz Eduardo Magalhães International Airport",-12.908611,-38.322498,64,SA,Brazil,BR,Bahia,BR-BA,BA,Salvador,1,SBSV,SSA,BA0001,https://www4.infraero.gov.br/aeroportos/aeroporto-internacional-de-salvador-dep-luis-eduardo-magalhaes/web,https://en.wikipedia.org/wiki/Deputado_Lu%C3%ADs_Eduardo_Magalh%C3%A3es_International_Airport,"Dois de Julho",1050,2022-06-09T10:59:28+00:00
5951,SBPA,medium_airport,"Salgado Filho International Airport",-29.994712,-51.166592,11,SA,Brazil,BR,"Rio Grande do Sul",BR-RS,RS,"Porto Alegre",1,SBPA,POA,RS0001,,https://en.wikipedia.org/wiki/Salgado_Filho_International_Airport,,750,2021-08-18T21:06:21+00:00
5965,SBRF,medium_airport,"Recife/Guararapes - Gilberto Freyre International Airport",-8.125984,-34.923316,33,SA,Brazil,BR,Pernambuco,BR-PE,PE,Recife,1,SBRF,REC,PE0001,http://www.infraero.gov.br/usa/aero_prev_home.php?ai=163,https://en.wikipedia.org/wiki/Recife/Guararapes%E2%80%93Gilberto_Freyre_International_Airport,Ibura,750,2022-03-28T20:13:42+00:00
5927,SBKP,medium_airport,"Viracopos International Airport",-23.007404,-47.134502,2170,SA,Brazil,BR,"São Paulo",BR-SP,SP,Campinas,1,SBKP,VCP,SP0003,http://www.aeroportoviracopos.net/,https://en.wikipedia.org/wiki/Viracopos-Campinas_International_Airport,,750,2021-12-23T23:55:17+00:00
5900,SBFI,medium_airport,"Cataratas International Airport",-25.594167,-54.489444,786,SA,Brazil,BR,Paraná,BR-PR,PR,"Foz do Iguaçu",1,SBFI,IGU,PR0002,,https://en.wikipedia.org/wiki/Foz_do_Igua%C3%A7u_International_Airport,,750,2021-10-14T21:01:26+00:00
5905,SBFZ,large_airport,"Pinto Martins International Airport",-3.775833,-38.532222,83,SA,Brazil,BR,Ceará,BR-CE,CE,Fortaleza,1,SBFZ,FOR,CE0001,https://fortaleza-airport.com.br/en,https://en.wikipedia.org/wiki/Pinto_Martins_International_Airport,,1000,2024-01-25T14:34:21+00:00
5882,SBCF,large_airport,"Tancredo Neves International Airport",-19.63571,-43.966928,2721,SA,Brazil,BR,"Minas Gerais",BR-MG,MG,"Belo Horizonte",1,SBCF,CNF,MG0001,http://www.infraero.gov.br/usa/aero_prev_home.php?ai=207,https://en.wikipedia.org/wiki/Tancredo_Neves_International_Airport,http://www.infraero.gov.br/usa/aero_prev_home.php?ai=207,1200,2021-09-11T17:33:35+00:00
5891,SBCT,medium_airport,"Afonso Pena Airport",-25.5285,-49.1758,2988,SA,Brazil,BR,Paraná,BR-PR,PR,Curitiba,1,SBCT,CWB,PR0001,,https://en.wikipedia.org/wiki/Afonso_Pena_International_Airport,,750,2021-11-20T16:19:32+00:00
5897,SBEG,large_airport,"Eduardo Gomes International Airport",-3.03861,-60.049702,264,SA,Brazil,BR,Amazonas,BR-AM,AM,Manaus,1,SBEG,MAO,AM0001,https://airport-manaus.com.br/,https://en.wikipedia.org/wiki/Eduardo_Gomes_International_Airport,,1050,2022-09-20T13:26:43+00:00
5901,SBFL,large_airport,"Hercílio Luz International Airport",-27.670279,-48.552502,16,SA,Brazil,BR,"Santa Catarina",BR-SC,SC,Florianópolis,1,SBFL,FLN,SC0001,http://www.infraero.gov.br/usa/aero_prev_home.php?ai=228,https://en.wikipedia.org/wiki/Herc%C3%ADlio_Luz_International_Airport,http://www.infraero.gov.br/usa/aero_prev_home.php?ai=228,1150,2021-10-28T10:54:45+00:00
5883,SBCG,medium_airport,"Campo Grande Airport",-20.469998,-54.673988,1833,SA,Brazil,BR,"Mato Grosso do Sul",BR-MS,MS,"Campo Grande",1,SBCG,CGR,MS0001,,https://en.wikipedia.org/wiki/Campo_Grande_International_Airport,,750,2021-09-21T13:37:09+00:00
5867,SBBE,large_airport,"Val de Cans/Júlio Cezar Ribeiro International Airport",-1.379279,-48.476207,54,SA,Brazil,BR,Pará,BR-PA,PA,Belém,1,SBBE,BEL,PA0001,http://www.infraero.gov.br/index.php/br/aeroportos/para/aeroporto-internacional-de-belem.html,https://en.wikipedia.org/wiki/Val_de_Cans_International_Airport,,1050,2021-08-09T16:50:15+00:00
5998,SBVT,large_airport,"Eurico de Aguiar Salles Airport",-20.258,-40.285,34,SA,Brazil,BR,"Espírito Santo",BR-ES,ES,Vitória,1,SBVT,VIX,ES0001,https://vitoria-airport.com.br,https://en.wikipedia.org/wiki/Eurico_de_Aguiar_Salles_Airport,,1000,2023-09-16T11:34:03+00:00
313262,SBSG,medium_airport,"São Gonçalo do Amarante - Governador Aluízio Alves International Airport",-5.769804,-35.366578,272,SA,Brazil,BR,"Rio Grande do Norte",BR-RN,RN,Natal,1,SBSG,NAT,RN0001,http://www.natal.aero,https://en.wikipedia.org/wiki/Greater_Natal_International_Airport,"Greater Natal International Airport,  Augusto Severo International Airport",500,2021-11-21T15:36:37+00:00
5931,SBLO,medium_airport,"Governador José Richa Airport",-23.333599,-51.1301,1867,SA,Brazil,BR,Paraná,BR-PR,PR,Londrina,1,SBLO,LDB,PR0003,,https://en.wikipedia.org/wiki/Londrina_Airport,"Londrina Airport",750,2022-01-26T16:58:13+00:00
5968,SBRP,medium_airport,"Leite Lopes Airport",-21.134314,-47.774053,1805,SA,Brazil,BR,"São Paulo",BR-SP,SP,"Ribeirão Preto",1,SBRP,RAO,SP0004,https://www.daesp.sp.gov.br/aeroporto-estadual-de-ribeirao-preto-dr-leite-lopes/,https://en.wikipedia.org/wiki/Leite_Lopes_Airport,,750,2022-03-28T23:57:25+00:00
5869,SBBH,medium_airport,"Pampulha - Carlos Drummond de Andrade Airport",-19.8512,-43.9506,2589,SA,Brazil,BR,"Minas Gerais",BR-MG,MG,"Belo Horizonte",0,SBBH,PLU,MG0003,http://www.infraero.gov.br/usa/aero_prev_home.php?ai=204,https://en.wikipedia.org/wiki/Pampulha_Domestic_Airport,BHZ,750,2021-08-09T18:48:48+00:00
5908,SBGO,medium_airport,"Santa Genoveva Airport",-16.632,-49.220699,2450,SA,Brazil,BR,Goiás,BR-GO,GO,Goiânia,1,SBGO,GYN,GO0001,https://www4.infraero.gov.br/aeroportos/aeroporto-de-goiania-santa-genoveva/,https://en.wikipedia.org/wiki/Santa_Genoveva_Airport,,750,2021-10-28T11:53:59+00:00
5961,SBPS,large_airport,"Porto Seguro Airport",-16.438426,-39.080584,169,SA,Brazil,BR,Bahia,BR-BA,BA,"Porto Seguro",1,SBPS,BPS,BA0002,http://www.aeroportoportoseguro.com.br/,https://en.wikipedia.org/wiki/Porto_Seguro_Airport,,1000,2023-09-19T14:12:25+00:00
5894,SBCY,medium_airport,"Marechal Rondon Airport",-15.6529,-56.116699,617,SA,Brazil,BR,"Mato Grosso",BR-MT,MT,Cuiabá,1,SBCY,CGB,MT0001,http://www.infraero.gov.br/index.php/aeroportos/mato-grosso/aeroporto-internacional-marechal-rondon,https://en.wikipedia.org/wiki/Marechal_Rondon_International_Airport,,750,2021-10-03T15:36:16+00:00
5971,SBSL,medium_airport,"Marechal Cunha Machado International Airport",-2.58536,-44.2341,178,SA,Brazil,BR,Maranhão,BR-MA,MA,"São Luís",1,SBSL,SLZ,MA0001,,https://en.wikipedia.org/wiki/Marechal_Cunha_Machado_International_Airport,,750,2022-04-26T14:57:41+00:00
148,SDAM,small_airport,"Estadual de Campos dos Amarais - Prefeito Francisco Amaral Airport",-22.859866,-47.107573,2008,SA,Brazil,BR,"São Paulo",BR-SP,SP,Campinas,0,SDAM,,SP0037,http://www.voa-sp.com.br/aeroporto/aeroporto-estadual-campo-do-amarais-prefeito-francisco-amaral/,https://en.wikipedia.org/wiki/Campo_dos_Amarais_Airport,CPQ,50,2021-11-11T15:10:12+00:00
5949,SBNT,medium_airport,"Natal Air Force Base",-5.91142,-35.2477,171,SA,Brazil,BR,"Rio Grande do Norte",BR-RN,RN,Natal,0,SBNT,,RN9001,,https://en.wikipedia.org/wiki/Natal_Air_Force_Base,"Augusto Severo International Airport , NAT, Parnamirim",750,2021-10-11T14:13:17+00:00
45646,SBJD,small_airport,"Comte. Rolim Adolfo Amaro–Jundiaí State Airport",-23.180861,-46.943921,2470,SA,Brazil,BR,"São Paulo",BR-SP,SP,Jundiaí,0,SBJD,QDV,SP0031,http://www.voa-sp.com.br/aeroporto/aeroporto-estadual-comandante-rolim-adolfo-amaro/,https://en.wikipedia.org/wiki/Jundia%C3%AD_Airport,"Jundiaí Airport",50,2021-12-05T14:51:04+00:00
5902,SBFN,medium_airport,"Fernando de Noronha Airport",-3.854471,-32.423302,193,SA,Brazil,BR,Pernambuco,BR-PE,PE,"Fernando de Noronha",1,SBFN,FEN,PE0003,http://www.ilhadenoronha.com.br/ailha/aviacao_em_noronha.php,https://en.wikipedia.org/wiki/Fernando_de_Noronha_Airport,,750,2021-10-28T11:28:45+00:00
5947,SBNF,medium_airport,"Ministro Victor Konder International Airport",-26.879431,-48.650979,18,SA,Brazil,BR,"Santa Catarina",BR-SC,SC,Navegantes,1,SBNF,NVT,SC0002,https://www4.infraero.gov.br/aeroportos/aeroporto-internacional-de-navegantes-ministro-victor-konder/,https://en.wikipedia.org/wiki/Navegantes_Airport,,750,2022-03-13T22:18:18+00:00
5975,SBSR,medium_airport,"Prof. Eribelto Manoel Reino State Airport",-20.817113,-49.406963,1784,SA,Brazil,BR,"São Paulo",BR-SP,SP,"São José do Rio Preto",1,SBSR,SJP,SP0006,,https://en.wikipedia.org/wiki/S%C3%A3o_Jos%C3%A9_do_Rio_Preto_Airport,"São José do Rio Preto Airport",750,2022-05-20T18:57:45+00:00
5925,SBJV,medium_airport,"Lauro Carneiro de Loyola Airport",-26.224501,-48.797401,15,SA,Brazil,BR,"Santa Catarina",BR-SC,SC,Joinville,1,SBJV,JOI,SC0004,,https://en.wikipedia.org/wiki/Joinville-Lauro_Carneiro_de_Loyola_Airport,,750,2021-12-14T12:11:14+00:00
5938,SBMG,medium_airport,"Regional de Maringá - Sílvio Name Júnior Airport",-23.47606,-52.016187,1801,SA,Brazil,BR,Paraná,BR-PR,PR,Maringá,1,SBMG,MGF,PR0004,https://www.aeroportomaringa.com.br/,https://en.wikipedia.org/wiki/Maring%C3%A1_Domestic_Airport,SBMH.,750,2022-01-29T22:24:41+00:00
5955,SBPJ,medium_airport,"Brigadeiro Lysias Rodrigues Airport",-10.2915,-48.356998,774,SA,Brazil,BR,Tocantins,BR-TO,TO,Palmas,1,SBPJ,PMW,TO0001,https://www4.infraero.gov.br/aeroportos/aeroporto-de-palmas-brigadeiro-lysias-rodrigues/,https://en.wikipedia.org/wiki/Palmas_Airport,,750,2022-02-22T23:08:48+00:00
5970,SBSJ,medium_airport,"Professor Urbano Ernesto Stumpf Airport",-23.2292,-45.8615,2120,SA,Brazil,BR,"São Paulo",BR-SP,SP,"São José Dos Campos",1,SBSJ,SJK,SP0008,,https://en.wikipedia.org/wiki/S%C3%A3o_Jos%C3%A9_dos_Campos_Regional_Airport,,750,2022-01-08T19:51:24+00:00
5870,SBBI,medium_airport,"Bacacheri Airport",-25.4051,-49.231998,3057,SA,Brazil,BR,Paraná,BR-PR,PR,Curitiba,0,SBBI,BFH,PR0006,,https://en.wikipedia.org/wiki/Bacacheri_Airport,,250,2020-10-06T12:06:34+00:00
30340,SBJR,small_airport,"Jacarepaguá - Roberto Marinho Airport",-22.986773,-43.372194,10,SA,Brazil,BR,"Rio de Janeiro",BR-RJ,RJ,"Rio De Janeiro",0,SBJR,RRJ,RJ0005,https://www4.infraero.gov.br/aeroportos/aeroporto-de-jacarepagua-roberto-marinho/,https://en.wikipedia.org/wiki/Jacarepagu%C3%A1_Airport,,50,2020-09-11T16:29:05+00:00
5942,SBMO,medium_airport,"Zumbi dos Palmares Airport",-9.51081,-35.791698,387,SA,Brazil,BR,Alagoas,BR-AL,AL,Maceió,1,SBMO,MCZ,AL0001,,https://en.wikipedia.org/wiki/Zumbi_dos_Palmares_International_Airport,,750,2022-02-13T15:39:56+00:00
5896,SBDN,medium_airport,"Presidente Prudente Airport",-22.1751,-51.424599,1477,SA,Brazil,BR,"São Paulo",BR-SP,SP,"Presidente Prudente",1,SBDN,PPB,SP0005,http://www.daesp.sp.gov.br/aeroporto-detalhe/?id=879,https://en.wikipedia.org/wiki/Presidente_Prudente_Airport,,750,2021-10-06T11:24:52+00:00
5945,SBMT,medium_airport,"Campo de Marte Airport",-23.5091,-46.637798,2371,SA,Brazil,BR,"São Paulo",BR-SP,SP,"São Paulo",0,SBMT,RTE,SP0007,https://www4.infraero.gov.br/aeroportos/aeroporto-de-sao-paulo-campo-de-marte/,https://en.wikipedia.org/wiki/Campo_de_Marte_Airport,,250,2022-04-19T19:18:01+00:00
145,SDAI,small_airport,"Americana Airport",-22.755917,-47.269408,2085,SA,Brazil,BR,"São Paulo",BR-SP,SP,Americana,0,SDAI,,SP0047,,https://pt.wikipedia.org/wiki/Aeroporto_de_Americana,QWJ,50,2024-05-19T12:15:35+00:00
5861,SBAQ,medium_airport,"Araraquara Airport",-21.812,-48.132999,2334,SA,Brazil,BR,"São Paulo",BR-SP,SP,Araraquara,1,SBAQ,AQA,SP0012,http://www.daesp.sp.gov.br/aeroporto-estadual-de-araraquara-bartolomeu-de-gusmao/,https://en.wikipedia.org/wiki/Araraquara_Airport,,750,2020-10-06T13:32:10+00:00
5875,SBBV,medium_airport,"Atlas Brasil Cantanhede Airport",2.845855,-60.690944,276,SA,Brazil,BR,Roraima,BR-RR,RR,"Boa Vista",1,SBBV,BVB,RR0001,,https://en.wikipedia.org/wiki/Boa_Vista_International_Airport,"Boa Vista International Airport",750,2021-08-09T15:23:50+00:00
5957,SBPL,medium_airport,"Senador Nilo Coelho Airport",-9.362422,-40.569098,1263,SA,Brazil,BR,Pernambuco,BR-PE,PE,Petrolina,1,SBPL,PNZ,PE0002,https://www4.infraero.gov.br/aeroportos/aeroporto-de-petrolina-senador-nilo-coelho/,https://en.wikipedia.org/wiki/Petrolina_Airport,,750,2022-02-23T11:36:08+00:00
5993,SBUL,medium_airport,"Ten. Cel. Aviador César Bombonato Airport",-18.883579,-48.225936,3094,SA,Brazil,BR,"Minas Gerais",BR-MG,MG,Uberlândia,1,SBUL,UDI,MG0002,https://www4.infraero.gov.br/aeroportos/aeroporto-de-uberlandia-ten-cel-aviador-cesar-bombonato/,https://en.wikipedia.org/wiki/Uberlândia_Airport,,750,2022-07-26T13:13:36+00:00
5923,SBJP,medium_airport,"Presidente Castro Pinto International Airport",-7.148691,-34.950554,217,SA,Brazil,BR,Paraíba,BR-PB,PB,"João Pessoa",1,SBJP,JPA,PB0001,,https://en.wikipedia.org/wiki/Presidente_Castro_Pinto_International_Airport,,750,2021-12-14T11:24:48+00:00
5940,SBML,medium_airport,"Frank Miloye Milenkowichi–Marília State Airport",-22.196899,-49.926485,2134,SA,Brazil,BR,"São Paulo",BR-SP,SP,Marília,1,SBML,MII,SP0014,https://www.daesp.sp.gov.br/aeroporto-estadual-de-marilia-frank-miloye-milenkowichi/,https://en.wikipedia.org/wiki/Mar%C3%ADlia_Airport,"Marília Airport",750,2022-01-30T11:34:01+00:00
5995,SBUR,medium_airport,"Mário de Almeida Franco Airport",-19.765036,-47.964805,2655,SA,Brazil,BR,"Minas Gerais",BR-MG,MG,Uberaba,1,SBUR,UBA,MG0009,,https://en.wikipedia.org/wiki/Uberaba_Airport,,750,2024-11-12T13:46:27+00:00
5874,SBBU,small_airport,"Bauru Airport",-22.344999,-49.053799,2025,SA,Brazil,BR,"São Paulo",BR-SP,SP,Bauru,0,SBBU,,SP0017,,https://en.wikipedia.org/wiki/Bauru_Airport,BAU,150,2024-01-18T13:29:09+00:00
5893,SBCX,medium_airport,"Hugo Cantergiani Regional Airport",-29.197183,-51.187647,2472,SA,Brazil,BR,"Rio Grande do Sul",BR-RS,RS,"Caxias Do Sul",1,SBCX,CXJ,RS0007,,https://en.wikipedia.org/wiki/Caxias_do_Sul_Airport,"Campo dos Bugres Airport, Caxias do Sul Airport",750,2021-10-03T14:50:21+00:00
5884,SBCH,medium_airport,"Serafin Enoss Bertaso Airport",-27.134199,-52.656601,2154,SA,Brazil,BR,"Santa Catarina",BR-SC,SC,Chapecó,1,SBCH,XAP,SC0003,,https://en.wikipedia.org/wiki/Chapec%C3%B3_Airport,"Chapecó Airport",750,2021-09-21T14:01:31+00:00
5917,SBIL,medium_airport,"Bahia - Jorge Amado Airport",-14.815929,-39.033458,15,SA,Brazil,BR,Bahia,BR-BA,BA,Ilhéus,1,SBIL,IOS,BA0004,,https://en.wikipedia.org/wiki/Ilh%C3%A9us_Jorge_Amado_Airport,,750,2021-10-29T01:25:50+00:00
5943,SBMQ,medium_airport,"Macapá - Alberto Alcolumbre International Airport",0.050664,-51.072201,56,SA,Brazil,BR,Amapá,BR-AP,AP,Macapá,1,SBMQ,MCP,AP0001,https://www4.infraero.gov.br/aeroportos/aeroporto-internacional-de-macapa-alberto-alcolumbre/,https://en.wikipedia.org/wiki/Macap%C3%A1_International_Airport,,750,2022-02-17T22:48:41+00:00
156,SDCO,small_airport,"Sorocaba Airport",-23.478001,-47.490002,2083,SA,Brazil,BR,"São Paulo",BR-SP,SP,Sorocaba,1,SDCO,SOD,SP0027,,https://en.wikipedia.org/wiki/Sorocaba_Airport,,150,2022-05-06T18:49:42+00:00
35568,SDIM,small_airport,"Itanhaém Airport",-24.159729,-46.790604,13,SA,Brazil,BR,"São Paulo",BR-SP,SP,Itanhaém,0,SDIM,JTN,,http://www.voa-sp.com.br/,https://en.wikipedia.org/wiki/Itanhaém_Airport,,50,2022-02-01T15:45:48+00:00
5865,SBAU,medium_airport,"Araçatuba Airport",-21.141479,-50.424575,1361,SA,Brazil,BR,"São Paulo",BR-SP,SP,Araçatuba,1,SBAU,ARU,SP0009,http://www.daesp.sp.gov.br/aeroporto-estadual-de-aracatuba-dario-guarita/,https://en.wikipedia.org/wiki/Ara%C3%A7atuba_Airport,"Dario Guarita State Airport,",750,2020-10-11T22:23:40+00:00
5878,SBCA,medium_airport,"Coronel Adalberto Mendes da Silva Airport",-25.000323,-53.501208,2481,SA,Brazil,BR,Paraná,BR-PR,PR,Cascavel,1,SBCA,CAC,PR0005,,https://en.wikipedia.org/wiki/Cascavel_Airport,,750,2021-08-09T19:44:32+00:00
5973,SBSN,medium_airport,"Santarém - Maestro Wilson Fonseca International Airport",-2.422423,-54.79306,198,SA,Brazil,BR,Pará,BR-PA,PA,Santarém,1,SBSN,STM,PA0002,https://www4.infraero.gov.br/aeroportos/aeroporto-de-santarem-maestro-wilson-fonseca/,https://en.wikipedia.org/wiki/Santar%C3%A9m-Maestro_Wilson_Fonseca_Airport,,750,2022-04-26T15:58:28+00:00
5862,SBAR,medium_airport,"Aracaju - Santa Maria International Airport",-10.984,-37.070301,139,SA,Brazil,BR,Sergipe,BR-SE,SE,Aracaju,1,SBAR,AJU,SE0001,https://www.aenabrasil.com.br/pt/aeroportos/aeroporto-internacional-santa-maria-aracaju/index.html,https://en.wikipedia.org/wiki/Santa_Maria_Airport_(Sergipe),,500,2024-07-18T15:20:11+00:00
30240,SDTK,small_airport,"Paraty Airport",-23.224044,-44.7234,10,SA,Brazil,BR,"Rio de Janeiro",BR-RJ,RJ,Paraty,1,SDTK,JPY,,,https://en.wikipedia.org/wiki/Paraty_Airport,,100,2022-02-01T15:41:12+00:00
580,SWSI,small_airport,"Presidente João Batista Figueiredo Airport",-11.885001,-55.586109,1227,SA,Brazil,BR,"Mato Grosso",BR-MT,MT,Sinop,1,SBSI,OPS,MT0002,,https://en.wikipedia.org/wiki/Sinop_Airport_(Brazil),SWSI,100,2023-04-11T01:22:04+00:00
35737,SDTB,small_airport,"Atibaia Airport",-23.127777099609375,-46.57472229003906,2592,SA,Brazil,BR,"São Paulo",BR-SP,SP,Atibaia,0,SDTB,,,,,,50,2008-06-24T09:40:26+00:00
151,SDBK,small_airport,"Botucatu - Tancredo de Almeida Neves Airport",-22.937765,-48.468161,3012,SA,Brazil,BR,"São Paulo",BR-SP,SP,Botucatu,0,SDBK,,SP0019,,https://pt.wikipedia.org/wiki/Aeroporto_de_Botucatu,QCJ,50,2022-09-12T15:27:45+00:00
170,SDIO,small_airport,"Aeroclube de Itápolis Airport",-21.600287,-48.833057,1827,SA,Brazil,BR,"São Paulo",BR-SP,SP,Itápolis,0,SDIO,,SP0109,https://www.aci.com.br/,https://pt.wikipedia.org/wiki/Aer%C3%B3dromo_de_It%C3%A1polis,,50,2023-07-31T00:10:59+00:00
5964,SBRB,medium_airport,"Rio Branco-Plácido de Castro International Airport",-9.869031,-67.893984,633,SA,Brazil,BR,Acre,BR-AC,AC,"Rio Branco",1,SBRB,RBR,AC0001,,https://en.wikipedia.org/wiki/Rio_Branco_International_Airport,,750,2020-08-12T19:23:57+00:00
5982,SBTE,medium_airport,"Senador Petrônio Portela Airport",-5.06025,-42.823712,219,SA,Brazil,BR,Piauí,BR-PI,PI,Teresina,1,SBTE,THE,PI0001,,https://en.wikipedia.org/wiki/Teresina_Airport,,750,2024-04-29T19:44:49+00:00
32305,SJTC,medium_airport,"Bauru/Arealva–Moussa Nakhal Tobias State Airport",-22.160755,-49.070325,1962,SA,Brazil,BR,"São Paulo",BR-SP,SP,Bauru,1,SBAE,JTC,SP0010,http://www.daesp.sp.gov.br/aeroporto-estadual-de-bauru-arealva-moussa-nakhal-tobias/,https://en.wikipedia.org/wiki/Bauru-Arealva_Airport,SJCT,500,2020-12-06T23:06:16+00:00
5956,SBPK,medium_airport,"João Simões Lopes Neto International Airport",-31.717253,-52.327952,59,SA,Brazil,BR,"Rio Grande do Sul",BR-RS,RS,Pelotas,1,SBPK,PET,RS0005,https://www4.infraero.gov.br/aeroportos/aeroporto-internacional-de-pelotas-rs-joao-simoes-lopes-neto/,https://en.wikipedia.org/wiki/Pelotas_International_Airport,"Pelotas Airport",500,2022-02-23T01:13:13+00:00
5953,SBPC,medium_airport,"Poços de Caldas - Embaixador Walther Moreira Salles Airport",-21.842529,-46.569768,4138,SA,Brazil,BR,"Minas Gerais",BR-MG,MG,"Poços De Caldas",0,SBPC,POO,MG0018,,https://pt.wikipedia.org/wiki/Aeroporto_de_Po%C3%A7os_de_Caldas,,250,2021-08-20T10:35:11+00:00
141,SDAA,small_airport,"Araras Airport",-22.338227,-47.357898,2247,SA,Brazil,BR,"São Paulo",BR-SP,SP,Araras,0,SDAA,,SP0045,,https://pt.wikipedia.org/wiki/Aeroporto_de_Araras,,50,2024-05-19T10:14:20+00:00
231,SIMK,small_airport,"Tenente Lund Pressoto Airport",-20.592199,-47.3829,3292,SA,Brazil,BR,"São Paulo",BR-SP,SP,Franca,0,SIMK,FRC,SP0011,http://www.daesp.sp.gov.br/aeroporto-detalhe/?id=859,https://en.wikipedia.org/wiki/Franca_Airport,SBFC,50,2020-08-22T15:53:57+00:00
201,SDSC,small_airport,"Mário Pereira Lopes–São Carlos Airport",-21.875401,-47.903703,2649,SA,Brazil,BR,"São Paulo",BR-SP,SP,"São Carlos",0,SDSC,QSC,SDSC,,https://en.wikipedia.org/wiki/S%C3%A3o_Carlos_Airport,,50,2019-01-27T10:24:56+00:00
206,SDUB,small_airport,"Ubatuba Gastão Madeira State Airport",-23.440628,-45.074057,13,SA,Brazil,BR,"São Paulo",BR-SP,SP,Ubatuba,0,SDUB,UBT,SDUB,,https://en.wikipedia.org/wiki/Ubatuba_Airport,,50,2024-05-16T20:25:53+00:00
5920,SBIZ,medium_airport,"Prefeito Renato Moreira Airport",-5.53129,-47.459999,430,SA,Brazil,BR,Maranhão,BR-MA,MA,Imperatriz,1,SBIZ,IMP,MA0002,,https://en.wikipedia.org/wiki/Imperatriz_Airport,,750,2021-11-12T12:21:34+00:00
5922,SBJF,medium_airport,"Francisco de Assis Airport",-21.791482,-43.386072,2989,SA,Brazil,BR,"Minas Gerais",BR-MG,MG,"Juiz de Fora",1,SBJF,JDF,MG0016,,https://en.wikipedia.org/wiki/Juiz_de_Fora_Airport,"Serrinha Airport",750,2021-12-06T17:11:14+00:00
5962,SBPV,medium_airport,"Governador Jorge Teixeira de Oliveira Airport",-8.707854,-63.90242,295,SA,Brazil,BR,Rondônia,BR-RO,RO,"Porto Velho",1,SBPV,PVH,RO0001,,https://en.wikipedia.org/wiki/Governador_Jorge_Teixeira_de_Oliveira_International_Airport,,750,2022-03-28T12:20:18+00:00
5864,SBAT,medium_airport,"Piloto Osvaldo Marques Dias Airport",-9.866389,-56.106298,948,SA,Brazil,BR,"Mato Grosso",BR-MT,MT,"Alta Floresta",1,SBAT,AFL,MT0003,,https://en.wikipedia.org/wiki/Alta_Floresta_Airport,,500,2020-10-06T13:52:14+00:00
5929,SBLJ,medium_airport,"Lages Airport",-27.782101,-50.281502,3065,SA,Brazil,BR,"Santa Catarina",BR-SC,SC,Lages,1,SBLJ,LAJ,SC0007,,https://en.wikipedia.org/wiki/Lages_Airport,"Antônio Correia Pinto de Macedo Airport, Guarujá Federal Airport",500,2022-01-26T16:36:41+00:00
5944,SBMS,medium_airport,"Dix-Sept Rosado Airport",-5.20192,-37.3643,76,SA,Brazil,BR,"Rio Grande do Norte",BR-RN,RN,Mossoró,1,SBMS,MVF,RN0002,,https://en.wikipedia.org/wiki/Mossor%C3%B3_Airport,"Mossoró Airport",500,2021-12-02T10:33:35+00:00
517,SSZW,medium_airport,"Ponta Grossa Airport - Comandante Antonio Amilton Beraldo",-25.184476,-50.143822,2588,SA,Brazil,BR,Paraná,BR-PR,PR,"Ponta Grossa",1,SBPG,PGZ,PR0012,https://www.pontagrossa.pr.gov.br/smicqp/aeroporto,https://en.wikipedia.org/wiki/Ponta_Grossa_Airport,"SSZW, Sant'ana Airport",500,2022-02-22T21:35:22+00:00
575,SWRD,medium_airport,"Maestro Marinho Franco Airport",-16.584292,-54.724803,1467,SA,Brazil,BR,"Mato Grosso",BR-MT,MT,Rondonópolis,1,SBRD,ROO,MT0004,http://www.rondonopolis.mt.gov.br/orgaos-municipais/aeroporto-municipal-maestro-marinho-franco/,https://en.wikipedia.org/wiki/Rondon%C3%B3polis_Airport,"SWRD, Rondonópolis Airport",500,2023-01-04T20:17:07+00:00
5873,SBBT,medium_airport,"Chafei Amsei Airport",-20.584631,-48.594125,1903,SA,Brazil,BR,"São Paulo",BR-SP,SP,Barretos,0,SNBA,BAT,SP0013,https://aeroportospaulistas.com.br/barretos/,https://en.wikipedia.org/wiki/Barretos_Airport,SBBT,250,2024-01-18T12:50:26+00:00
5913,SBGW,medium_airport,"Edu Chaves Field",-22.791599,-45.2048,1761,SA,Brazil,BR,"São Paulo",BR-SP,SP,Guaratinguetá,0,SBGW,GUJ,SP0076,,https://en.wikipedia.org/wiki/Guaratinguet%C3%A1_Airport,,250,2023-12-27T13:18:35+00:00
144,SDAG,small_airport,"Angra dos Reis Airport",-22.9753,-44.307098,10,SA,Brazil,BR,"Rio de Janeiro",BR-RJ,RJ,"Angra dos Reis",0,SDAG,GDR,RJ0010,,https://en.wikipedia.org/wiki/Angra_dos_Reis_Airport,,50,2024-04-06T19:30:37+00:00
168,SDIG,small_airport,"Ibitinga Airport",-21.74723,-48.855595,1778,SA,Brazil,BR,"São Paulo",BR-SP,SP,Ibitinga,0,SDIG,,SP0038,,,,50,2023-07-17T11:49:26+00:00
489,SSPG,small_airport,"Paranaguá Airport",-25.5401,-48.5312,16,SA,Brazil,BR,Paraná,BR-PR,PR,Paranaguá,0,SSPG,PNG,SSPG,,https://en.wikipedia.org/wiki/Paranagu%C3%A1_Airport,,50,2024-05-17T07:22:42+00:00
197,SDPW,small_airport,"Piracicaba Airport",-22.7115,-47.618198,1917,SA,Brazil,BR,"São Paulo",BR-SP,SP,Piracicaba,0,SDPW,,SP0041,https://www.aeroclubedepiracicaba.com.br/,https://pt.wikipedia.org/wiki/Aeroporto_Pedro_Morganti,"QHB, Pedro Morganti",50,2024-10-19T15:34:47+00:00
211,SDVG,small_airport,"Domingos Pignatari Airport",-20.458426,-50.003134,1676,SA,Brazil,BR,"São Paulo",BR-SP,SP,Votuporanga,0,SDVG,VOT,SP0026,,https://pt.wikipedia.org/wiki/Aeroporto_de_Votuporanga,,50,2024-05-21T20:28:53+00:00
5939,SBMK,medium_airport,"Mário Ribeiro Airport",-16.706919,-43.818901,2191,SA,Brazil,BR,"Minas Gerais",BR-MG,MG,"Montes Claros",1,SBMK,MOC,MG0004,https://www4.infraero.gov.br/aeroportos/aeroporto-de-montes-claros-mario-ribeiro/,https://en.wikipedia.org/wiki/Montes_Claros_Airport,"Montes Claros Airport",750,2022-01-30T11:03:37+00:00
5959,SBPP,medium_airport,"Ponta Porã Airport",-22.549601,-55.702599,2156,SA,Brazil,BR,"Mato Grosso do Sul",BR-MS,MS,"Ponta Porã",1,SBPP,PMG,MS0005,https://www4.infraero.gov.br/aeroportos/aeroporto-internacional-de-ponta-pora/,https://en.wikipedia.org/wiki/Ponta_Por%C3%A3_International_Airport,,750,2022-03-21T10:31:21+00:00
5948,SBNM,medium_airport,"Santo Ângelo Airport",-28.282503,-54.169623,1056,SA,Brazil,BR,"Rio Grande do Sul",BR-RS,RS,"Santo Ângelo",1,SBNM,GEL,RS0008,,https://en.wikipedia.org/wiki/Santo_%C3%82ngelo_Airport,,750,2022-03-13T23:14:24+00:00
5866,SBAX,medium_airport,"Romeu Zema Airport",-19.5632,-46.9604,3276,SA,Brazil,BR,"Minas Gerais",BR-MG,MG,Araxá,1,SBAX,AAX,MG0008,,https://en.wikipedia.org/wiki/Arax%C3%A1_Airport,,500,2024-04-02T15:10:29+00:00
5887,SBCM,medium_airport,"Forquilhinha - Criciúma  Airport",-28.725743,-49.424475,92,SA,Brazil,BR,"Santa Catarina",BR-SC,SC,Criciúma,1,SSIM,CCM,SC0009,,https://en.wikipedia.org/wiki/Diom%C3%ADcio_Freitas_Airport,"SBCM, Diomício Freitas, Santa Líbera.",500,2022-11-16T16:33:46+00:00
5912,SBGV,medium_airport,"Coronel Altino Machado Airport",-18.895882,-41.982869,561,SA,Brazil,BR,"Minas Gerais",BR-MG,MG,"Governador Valadares",1,SBGV,GVR,MG0032,,https://en.wikipedia.org/wiki/Governador_Valadares_Airport,"Governador Valadares Airport",500,2023-10-30T13:33:03+00:00
5997,SBVH,medium_airport,"Brigadeiro Camarão Airport",-12.6944,-60.098301,2018,SA,Brazil,BR,Rondônia,BR-RO,RO,Vilhena,1,SBVH,BVH,RO0003,,https://en.wikipedia.org/wiki/Vilhena_Airport,"Vilhena Airport",500,2022-08-06T12:24:35+00:00
6000,SBYS,medium_airport,"Campo Fontenelle",-21.984692,-47.341207,1968,SA,Brazil,BR,"São Paulo",BR-SP,SP,Pirassununga,0,SBYS,QPS,SP9002,,https://pt.wikipedia.org/wiki/Aeródromo_Campo_de_Fontenelle,,325,2020-11-04T22:05:55+00:00
5930,SBLN,medium_airport,"Lins Airport",-21.663999557495,-49.730499267578,1559,SA,Brazil,BR,"São Paulo",BR-SP,SP,Lins,0,SWXQ,LIP,SWXQ,,https://pt.wikipedia.org/wiki/Aeroporto_de_Lins,SBLN,250,2015-12-10T15:48:24+00:00
5879,SBCB,small_airport,"Cabo Frio Airport",-22.921485,-42.071874,22,SA,Brazil,BR,"Rio de Janeiro",BR-RJ,RJ,"Cabo Frio",1,SBCB,CFB,RJ0003,http://www.grupolibra.com.br/libra-aeroporto/cabo-frio/institucional,https://en.wikipedia.org/wiki/Cabo_Frio_International_Airport,,100,2021-12-01T10:27:15+00:00
447,SSDO,small_airport,"Dourados Airport",-22.2019,-54.926601,1503,SA,Brazil,BR,"Mato Grosso do Sul",BR-MS,MS,Dourados,1,SBDO,DOU,MS0008,,https://en.wikipedia.org/wiki/Dourados_Airport,SSDO,100,2021-10-06T11:40:02+00:00
150,SDBB,small_airport,"Bebedouro Airport",-20.900252,-48.473547,1942,SA,Brazil,BR,"São Paulo",BR-SP,SP,Bebedouro,0,SDBB,,SP0018,,,,50,2022-08-29T12:03:09+00:00
5960,SBPR,small_airport,"Carlos Prates Airport",-19.909629,-43.989179,3044,SA,Brazil,BR,"Minas Gerais",BR-MG,MG,"Belo Horizonte",0,SBPR,,MG0005,https://www4.infraero.gov.br/aeroportos/aeroporto-de-belo-horizonte-carlos-prates/,https://en.wikipedia.org/wiki/Carlos_Prates_Airport,,50,2022-03-21T11:27:02+00:00
46245,SBBP,small_airport,"Estadual Arthur Siqueira Airport",-22.978822,-46.537131,2887,SA,Brazil,BR,"São Paulo",BR-SP,SP,"Bragança Paulista",0,SBBP,BJP,SP0036,http://www.daesp.sp.gov.br/aeroportos/bragpaulista.htm,https://en.wikipedia.org/wiki/Bragan%C3%A7a_Paulista_Airport,SDBP,50,2021-08-09T19:01:34+00:00
154,SDCD,small_airport,"Catanduva Airport",-21.1492,-48.988701,1841,SA,Brazil,BR,"São Paulo",BR-SP,SP,Catanduva,0,SDCD,,SP0082,,https://pt.wikipedia.org/wiki/Aeroporto_de_Catanduva,,50,2024-05-19T10:15:31+00:00
300,SNDV,small_airport,"Brigadeiro Cabral Airport",-20.180700302124,-44.870899200439,2608,SA,Brazil,BR,"Minas Gerais",BR-MG,MG,Divinópolis,0,SNDV,DIQ,SNDV,,https://pt.wikipedia.org/wiki/Aeroporto_de_Divin%C3%B3polis,,50,2015-12-09T22:49:04+00:00
568,SWNV,small_airport,"Aeródromo Nacional de Aviação",-16.62584,-49.348832,2707,SA,Brazil,BR,Goiás,BR-GO,GO,Goiânia,0,SBNV,,GO0002,,https://en.wikipedia.org/wiki/Aeródromo_Nacional_de_Aviação,SWNV,50,2021-04-16T13:34:51+00:00
30141,SDMH,small_airport,"Mirassol Airport",-20.806853,-49.485301,1916,SA,Brazil,BR,"São Paulo",BR-SP,SP,Mirassol,0,SDMH,,SP0059,,,,50,2023-12-29T20:52:57+00:00
425,SNZA,small_airport,"Pouso Alegre Airport",-22.2892,-45.919102,2904,SA,Brazil,BR,"Minas Gerais",BR-MG,MG,"Pouso Alegre",0,SNZA,PPY,MG0038,,https://pt.wikipedia.org/wiki/Aeroporto_de_Pouso_Alegre,,50,2021-02-25T20:58:17+00:00
38033,SWPY,small_airport,"Primavera do Leste Airport",-15.565556,-54.337776,2149,SA,Brazil,BR,"Mato Grosso",BR-MT,MT,"Primavera Do Leste",0,SWPY,,,,https://en.wikipedia.org/wiki/Primavera_do_Leste_Airport,,50,2024-05-18T23:40:16+00:00
30338,SDRK,small_airport,"Rio Claro Airport",-22.430767,-47.562291,1998,SA,Brazil,BR,"São Paulo",BR-SP,SP,"Rio Claro",0,SDRK,,SP0049,http://www.aeroclubederioclaro.com.br/,https://pt.wikipedia.org/wiki/Aeroclube_de_Rio_Claro,QIQ,50,2024-09-04T00:58:52+00:00
558,SWLC,small_airport,"General Leite de Castro Airport",-17.834723,-50.956112,2464,SA,Brazil,BR,Goiás,BR-GO,GO,"Rio Verde",0,SWLC,RVD,SWLC,,https://en.wikipedia.org/wiki/Rio_Verde_Airport,,50,2024-05-17T07:37:42+00:00
504,SSSC,small_airport,"Santa Cruz do Sul Airport",-29.684099,-52.412201,646,SA,Brazil,BR,"Rio Grande do Sul",BR-RS,RS,"Santa Cruz Do Sul",0,SSSC,CSU,SSSC,,https://en.wikipedia.org/wiki/Santa_Cruz_do_Sul_Airport,,50,2024-05-17T07:23:31+00:00
5963,SBQV,closed,"Pedro Otacílio Figueiredo Airport",-14.862567,-40.863186,3002,SA,Brazil,BR,Bahia,BR-BA,BA,"Vitória da Conquista",0,,,,https://www.dumont-aero.com.br/rotaer/aerodromo.php?codigo=SBQV,https://en.wikipedia.org/wiki/Pedro_Otac%C3%ADlio_Figueiredo_Airport,"SBQV, BA0003",825,2022-03-28T19:23:34+00:00
5926,SBKG,medium_airport,"Presidente João Suassuna Airport",-7.269662,-35.896057,1646,SA,Brazil,BR,Paraíba,BR-PB,PB,"Campina Grande",1,SBKG,CPV,PB0003,https://www.aenabrasil.com.br/pt/aeroportos/aeroporto-de-campina-grande-presidente-joao-suassuna/index.html,https://en.wikipedia.org/wiki/Campina_Grande_Airport,,750,2024-06-17T14:53:52+00:00
5934,SBMA,medium_airport,"João Correa da Rocha Airport",-5.36859,-49.138,357,SA,Brazil,BR,Pará,BR-PA,PA,Marabá,1,SBMA,MAB,PA0004,,https://en.wikipedia.org/wiki/Marab%C3%A1_Airport,"Marabá Airport",750,2022-01-29T18:17:28+00:00
5972,SBSM,medium_airport,"Santa Maria Airport",-29.711399,-53.688202,287,SA,Brazil,BR,"Rio Grande do Sul",BR-RS,RS,"Santa Maria",1,SBSM,RIA,RS0003,,https://en.wikipedia.org/wiki/Santa_Maria_Airport_(Rio_Grande_do_Sul),,750,2022-04-26T15:28:22+00:00
5991,SBUF,medium_airport,"Paulo Afonso Airport",-9.40088,-38.250599,883,SA,Brazil,BR,Bahia,BR-BA,BA,"Paulo Afonso",1,SBUF,PAV,BA0007,https://www4.infraero.gov.br/aeroportos/aeroporto-de-paulo-afonso/,https://en.wikipedia.org/wiki/Paulo_Afonso_Airport,,500,2022-07-22T00:58:40+00:00
5990,SBUA,medium_airport,"São Gabriel da Cachoeira Airport",-0.14835,-66.9855,249,SA,Brazil,BR,Amazonas,BR-AM,AM,"São Gabriel da Cachoeira",1,SBUA,SJL,AM0003,https://sjlairport.com.br/,https://en.wikipedia.org/wiki/São_Gabriel_da_Cachoeira_Airport,Uaupés,500,2022-07-06T15:47:34+00:00
5983,SBTF,medium_airport,"Tefé Airport",-3.38294,-64.724098,186,SA,Brazil,BR,Amazonas,BR-AM,AM,Tefé,1,SBTF,TFF,AM0004,,https://en.wikipedia.org/wiki/Tef%C3%A9_Airport,,500,2022-06-14T22:42:37+00:00
5989,SBTU,medium_airport,"Tucuruí Airport",-3.78601,-49.720299,830,SA,Brazil,BR,Pará,BR-PA,PA,Tucuruí,1,SBTU,TUR,PA0007,,https://en.wikipedia.org/wiki/Tucuru%C3%AD_Airport,,500,2022-07-06T14:57:02+00:00
5941,SBMN,medium_airport,"Ponta Pelada Airport / Manaus Air Base",-3.14604,-59.986301,267,SA,Brazil,BR,Amazonas,BR-AM,AM,Manaus,0,SBMN,PLL,AM9001,,https://en.wikipedia.org/wiki/Ponta_Pelada_Airport,,275,2022-09-20T13:13:53+00:00
5888,SBCO,medium_airport,"Canoas Air Force Base",-29.945928,-51.144413,26,SA,Brazil,BR,"Rio Grande do Sul",BR-RS,RS,"Porto Alegre",0,SBCO,QNS,RS9002,http://www.fab.mil.br/organizacoes/mostra/39/BASE%20A%C3%89REA%20DE%20CANOAS,https://en.wikipedia.org/wiki/Canoas_Air_Force_Base,"Porto Alegre AFB, Base Aérea de Canoas, Campo Nossa Senhora de Fatima",275,2024-05-22T10:57:43+00:00
5932,SBLP,medium_airport,"Bom Jesus da Lapa Airport",-13.2621,-43.4081,1454,SA,Brazil,BR,Bahia,BR-BA,BA,"Bom Jesus da Lapa",0,SBLP,LAZ,BA0037,,https://en.wikipedia.org/wiki/Bom_Jesus_da_Lapa_Airport,,250,2022-01-26T17:15:12+00:00
5857,SBAA,medium_airport,"Conceição do Araguaia Airport",-8.34835,-49.301498,653,SA,Brazil,BR,Pará,BR-PA,PA,"Conceição do Araguaia",0,SBAA,CDJ,PA0008,,https://en.wikipedia.org/wiki/Concei%C3%A7%C3%A3o_do_Araguaia_Airport,,250,2022-09-30T09:33:12+00:00
5996,SBVG,medium_airport,"Major Brigadeiro Trompowsky Airport",-21.591375,-45.474116,3025,SA,Brazil,BR,"Minas Gerais",BR-MG,MG,Varginha,0,SBVG,VAG,MG0019,,https://en.wikipedia.org/wiki/Varginha_Airport,"Varginha Airport",250,2022-08-06T09:48:30+00:00
5924,SBJU,small_airport,"Orlando Bezerra de Menezes Airport",-7.21932,-39.269096,1342,SA,Brazil,BR,Ceará,BR-CE,CE,"Juazeiro do Norte",1,SBJU,JDO,CE0002,,https://en.wikipedia.org/wiki/Juazeiro_do_Norte_Airport,"Juazeiro do Norte Airport",150,2021-10-14T17:36:18+00:00
283,SNBR,small_airport,"Dom Ricardo Weberberger Airport",-12.0789,-45.008999,2451,SA,Brazil,BR,Bahia,BR-BA,BA,Barreiras,1,SNBR,BRA,BA0011,,https://en.wikipedia.org/wiki/Barreiras_Airport,,100,2023-04-12T12:34:30+00:00
37215,SNPP,small_airport,"Morro de São Paulo Airport",-13.428781,-38.913689,33,SA,Brazil,BR,Bahia,BR-BA,BA,Cairu,1,SDGX,,BA0073,,https://en.wikipedia.org/wiki/Morro_de_S%C3%A3o_Paulo_Airport,SNPP,100,2024-05-18T23:13:52+00:00
442,SSCN,small_airport,"Canela Airport",-29.370091,-50.831729,2746,SA,Brazil,BR,"Rio Grande do Sul",BR-RS,RS,Canela,1,SSCN,CEL,RS0019,https://www.aeroportodecanela.com.br/,https://en.wikipedia.org/wiki/Canela_Airport,,100,2022-10-27T13:45:33+00:00
5911,SBGU,small_airport,"Tancredo Thomas de Faria Airport",-25.388327,-51.52349,3494,SA,Brazil,BR,Paraná,BR-PR,PR,Guarapuava,1,SSGG,GPB,PR0009,,https://en.wikipedia.org/wiki/Guarapuava_Airport,"SBGU, Guarapuava Airport",100,2022-11-16T12:23:40+00:00
487,SSPB,small_airport,"Juvenal Loureiro Cardoso Airport",-26.217184,-52.694463,2697,SA,Brazil,BR,Paraná,BR-PR,PR,"Pato Branco",1,SBPO,PTO,PR0018,,https://en.wikipedia.org/wiki/Pato_Branco_Airport,SSPB,100,2019-05-11T11:30:39+00:00
508,SSTL,small_airport,"Plínio Alarcom Airport",-20.752643,-51.682026,1063,SA,Brazil,BR,"Mato Grosso do Sul",BR-MS,MS,"Três Lagoas",1,SBTG,TJL,MS0006,,https://en.wikipedia.org/wiki/Tr%C3%AAs_Lagoas_Airport,"SSTL, Três Lagoas Airport",100,2022-06-16T17:45:11+00:00
412,SNVB,small_airport,"Valença Airport",-13.2965,-38.992401,21,SA,Brazil,BR,Bahia,BR-BA,BA,Valença,1,SNVB,VAL,SNVB,,https://en.wikipedia.org/wiki/Valen%C3%A7a_Airport,,100,2018-10-26T14:19:44+00:00
567,SWNS,small_airport,"Anápolis Airport",-16.363575,-48.9288,3648,SA,Brazil,BR,Goiás,BR-GO,GO,Anápolis,0,SWNS,APS,GO0004,,http://pt.wikipedia.org/wiki/Aeroporto_de_An%C3%A1polis,,50,2024-09-20T13:44:41+00:00
157,SDDN,small_airport,"Andradina Airport",-20.925031,-51.382252,1247,SA,Brazil,BR,"São Paulo",BR-SP,SP,Andradina,0,SDDN,,SP0020,,https://pt.wikipedia.org/wiki/Aeroporto_de_Andradina,"Paulino Ribeiro de Andrade",50,2022-11-01T13:16:40+00:00
45622,SNAX,small_airport,"Marcelo Pires Halzhausen Airport",-22.638601,-50.455983,1850,SA,Brazil,BR,"São Paulo",BR-SP,SP,Assis,0,SNAX,AIF,SP0016,,https://en.wikipedia.org/wiki/Assis_Airport,"SBAS, Assis Airport",50,2023-07-22T19:45:45+00:00
37401,SSBG,small_airport,"Aeroclube de Bento Gonçalves Airport",-29.147424,-51.540791,2209,SA,Brazil,BR,"Rio Grande do Sul",BR-RS,RS,"Bento Gonçalves",0,SSBG,BGV,RS0091,,,,50,2021-03-29T23:58:12+00:00
436,SSBL,small_airport,"Blumenau Airport",-26.831661,-49.093569,60,SA,Brazil,BR,"Santa Catarina",BR-SC,SC,Blumenau,0,SSBL,BNU,SC0019,,https://en.wikipedia.org/wiki/Blumenau_Airport,,50,2024-05-17T07:21:12+00:00
35770,SDVH,small_airport,"Fazenda Vale Eldorado - Dr José de Aguiar Leme Airport",-23.0054,-46.636913,2727,SA,Brazil,BR,"São Paulo",BR-SP,SP,"Bragança Paulista",0,SDVH,,SP0154,,,Atibaia,50,2021-06-23T11:35:53+00:00
341,SNKI,small_airport,"Cachoeiro do Itapemirim - Raimundo de Andrade Airport",-20.834299,-41.1856,256,SA,Brazil,BR,"Espírito Santo",BR-ES,ES,"Cachoeiro do Itapemirim",0,SNKI,CDI,ES0006,,https://en.wikipedia.org/wiki/Cachoeiro_de_Itapemirim_Airport,QXD,50,2023-09-13T12:27:40+00:00
37050,SNCL,small_airport,"Lorenzo Airport",-13.389444,-38.91,3,SA,Brazil,BR,Bahia,BR-BA,BA,Cairu,0,SNCL,MXQ,BA0131,,,,50,2023-08-11T12:41:59+00:00
37072,SNEJ,small_airport,"Monte Verde Airport",-22.859722137451,-46.037498474121,5102,SA,Brazil,BR,"Minas Gerais",BR-MG,MG,Camanducaia,0,,,,,,SNEJ,50,2022-11-12T13:27:32+00:00
163,SDFD,small_airport,"Fernandópolis - Coronel Aviador Carlos Orleans Guimarães Airport",-20.276901,-50.214937,1640,SA,Brazil,BR,"São Paulo",BR-SP,SP,Fernandópolis,0,SDFD,,SDFD,,,,50,2023-01-16T01:45:38+00:00
309,SNFU,small_airport,"Frutal Airport",-20.0028,-48.958401,1808,SA,Brazil,BR,"Minas Gerais",BR-MG,MG,Frutal,0,SNFU,,SNFU,,https://pt.wikipedia.org/wiki/Aeroporto_de_Frutal,,50,2024-05-20T01:03:18+00:00
537,SWGI,small_airport,"Gurupi Airport",-11.7396,-49.132198,1148,SA,Brazil,BR,Tocantins,BR-TO,TO,Gurupi,0,SWGI,GRP,TO0004,,https://en.wikipedia.org/wiki/Gurupi_Airport,,50,2024-10-09T01:04:40+00:00
550,SWJW,small_airport,"Jataí Airport",-17.8299007416,-51.7729988098,2529,SA,Brazil,BR,Goiás,BR-GO,GO,Jataí,0,SWJW,JTI,SWJW,,http://pt.wikipedia.org/wiki/Aeroporto_de_Jata%C3%AD,,50,2014-12-06T12:15:11+00:00
183,SDLP,small_airport,"José Boso Municipal Airport",-22.5784,-48.774601,2039,SA,Brazil,BR,"São Paulo",BR-SP,SP,"Lençóis Paulista",0,SDLP,,SP0034,,,QGC,50,2023-12-27T15:02:14+00:00
591,SWUZ,small_airport,"Brigadeiro Araripe Macedo Airport",-16.2617,-47.9687,3269,SA,Brazil,BR,Goiás,BR-GO,GO,Luziânia,0,SWUZ,,SWUZ,,https://pt.wikipedia.org/wiki/Aeroporto_de_Luzi%C3%A2nia,,50,2024-05-20T01:37:18+00:00
186,SDME,small_airport,"Marchesan S.A. Airport",-21.629456,-48.392816,1936,SA,Brazil,BR,"São Paulo",BR-SP,SP,Matão,0,SDME,,SP0121,,,,50,2023-12-28T01:05:25+00:00
35661,SDOR,small_airport,"Fazenda Mosquito Airport",-20.747394,-47.889806,2415,SA,Brazil,BR,"São Paulo",BR-SP,SP,Orlândia,0,SDOR,,SP0131,,,,50,2024-07-22T18:57:37+00:00
367,SNPA,small_airport,"Pará de Minas Airport",-19.8426,-44.6012,2753,SA,Brazil,BR,"Minas Gerais",BR-MG,MG,"Pará de Minas",0,SNPA,,MG0052,,,,50,2023-11-01T14:50:57+00:00
195,SDPN,small_airport,"Penápolis Airport",-21.410012,-50.033659,1352,SA,Brazil,BR,"São Paulo",BR-SP,SP,Penápolis,0,SDPN,,SP0024,,https://pt.wikipedia.org/wiki/Aeroporto_de_Pen%C3%A1polis,,50,2024-08-05T04:21:35+00:00
35668,SDPD,small_airport,"Pindamonhangaba Airport",-22.943611,-45.431389,1883,SA,Brazil,BR,"São Paulo",BR-SP,SP,Pindamonhangaba,0,SDPD,,SP0072,,,,50,2024-08-03T17:53:43+00:00
42738,SBTV,small_airport,"Terravista Airport",-16.541416,-39.10811,164,SA,Brazil,BR,Bahia,BR-BA,BA,"Porto Seguro",0,SBTV,,BA0068,,https://pt.wikipedia.org/wiki/Aeroporto_Terravista,,50,2024-05-19T10:14:06+00:00
200,SDRS,small_airport,"Resende Airport",-22.4785,-44.480301,1320,SA,Brazil,BR,"Rio de Janeiro",BR-RJ,RJ,Resende,0,SDRS,REZ,RJ0007,,https://en.wikipedia.org/wiki/Resende_Airport,QRZ,50,2021-09-22T14:49:03+00:00
37550,SSKT,small_airport,"Aeroclube de Santa Catarina Airport",-27.611668,-48.672779,20,SA,Brazil,BR,"Santa Catarina",BR-SC,SC,"São José",0,SSKT,,,,https://pt.wikipedia.org/wiki/Aeroclube_de_Santa_Catarina,,50,2024-05-20T01:20:25+00:00
204,SDTP,small_airport,"Tupã Airport",-21.889099,-50.5051,1805,SA,Brazil,BR,"São Paulo",BR-SP,SP,Tupã,0,SDTP,,SDTP,,https://pt.wikipedia.org/wiki/Aeroporto_de_Tup%C3%A3,,50,2024-05-20T00:24:26+00:00
37691,BR-0122,small_airport,"Old Vacaria Airport",-28.509722,-50.918331,3215,SA,Brazil,BR,"Rio Grande do Sul",BR-RS,RS,Vacaria,0,,,,,,SSVC,50,2022-10-27T15:27:59+00:00
413,SNVR,small_airport,"Aeroclube da Bahia Airport",-13.024053,-38.665727,12,SA,Brazil,BR,Bahia,BR-BA,BA,"Vera Cruz",0,SNVR,,BA0147,,,,50,2021-02-14T17:34:09+00:00
5890,SBCR,medium_airport,"Corumbá International Airport",-19.01193,-57.672772,463,SA,Brazil,BR,"Mato Grosso do Sul",BR-MS,MS,Corumbá,1,SBCR,CMG,MS0009,,https://en.wikipedia.org/wiki/Corumb%C3%A1_International_Airport,,750,2021-10-03T13:14:49+00:00
5895,SBCZ,medium_airport,"Cruzeiro do Sul Airport",-7.59991,-72.769501,637,SA,Brazil,BR,Acre,BR-AC,AC,"Cruzeiro Do Sul",1,SBCZ,CZS,AC0002,http://www.infraero.gov.br/index.php/aeroportos/acre/aeroporto-cruzeiro-do-sul.html,https://en.wikipedia.org/wiki/Cruzeiro_do_Sul_International_Airport,,750,2020-08-12T19:32:39+00:00
5954,SBPF,medium_airport,"Lauro Kurtz Airport",-28.243976,-52.32777,2380,SA,Brazil,BR,"Rio Grande do Sul",BR-RS,RS,"Passo Fundo",1,SBPF,PFB,RS0006,,https://en.wikipedia.org/wiki/Lauro_Kurtz_Airport,,750,2021-08-20T10:58:57+00:00
5914,SBHT,medium_airport,"Altamira Interstate Airport",-3.253144,-52.253938,368,SA,Brazil,BR,Pará,BR-PA,PA,Altamira,1,SBHT,ATM,PA0003,https://www4.infraero.gov.br/aeroportos/aeroporto-de-altamira-para/,https://en.wikipedia.org/wiki/Altamira_Airport,,500,2021-10-28T19:58:30+00:00
323221,JJD,medium_airport,"Comandante Ariston Pessoa Airport",-2.906425,-40.357338,89,SA,Brazil,BR,Ceará,BR-CE,CE,Cruz,1,SBJE,JJD,CE0003,https://aeroportodejericoacoara.com.br,https://en.wikipedia.org/wiki/Jericoacoara_airport,"SSVV, Jericoacoara",500,2024-08-12T11:44:11+00:00
5918,SBIP,medium_airport,"Usiminas Airport",-19.470699,-42.487598,786,SA,Brazil,BR,"Minas Gerais",BR-MG,MG,Ipatinga,1,SBIP,IPN,MG0007,https://www4.infraero.gov.br/aeroportos/aeroporto-regional-do-vale-do-aco/,https://en.wikipedia.org/wiki/Vale_do_Aço_Regional_Airport,Usiminas,500,2023-11-01T14:39:03+00:00
5916,SBIH,medium_airport,"Itaituba Airport",-4.242131,-56.000651,110,SA,Brazil,BR,Pará,BR-PA,PA,Itaituba,1,SBIH,ITB,PA0010,,https://en.wikipedia.org/wiki/Itaituba_Airport,,500,2021-10-29T01:00:23+00:00
308204,SBZM,medium_airport,"Presidente Itamar Franco Airport",-21.513086,-43.173069,1348,SA,Brazil,BR,"Minas Gerais",BR-MG,MG,"Juiz de Fora",1,SBZM,IZA,,,https://en.wikipedia.org/wiki/Zona_da_Mata_Regional_Airport,"SDZY, Zona da Mata Regional Airport, Juiz de Fora Airport",500,2016-05-15T13:48:55+00:00
5979,SBTB,medium_airport,"Trombetas Airport",-1.4896,-56.396801,167,SA,Brazil,BR,Pará,BR-PA,PA,Oriximiná,1,SBTB,TMT,PA0012,,https://en.wikipedia.org/wiki/Porto_Trombetas_Airport,"Porto Trombetas",500,2022-05-29T17:50:26+00:00
5952,SBPB,medium_airport,"Parnaíba - Prefeito Doutor João Silva Filho International Airport",-2.89375,-41.731998,23,SA,Brazil,BR,Piauí,BR-PI,PI,Parnaíba,1,SBPB,PHB,PI0002,,https://en.wikipedia.org/wiki/Parna%C3%ADba-Prefeito_Dr._Jo%C3%A3o_Silva_Filho_International_Airport,"Santos Dumont Airport",500,2021-12-02T10:30:51+00:00
5992,SBUG,medium_airport,"Rubem Berta Airport",-29.7822,-57.0382,256,SA,Brazil,BR,"Rio Grande do Sul",BR-RS,RS,Uruguaiana,1,SBUG,URG,RS0012,,https://en.wikipedia.org/wiki/Ruben_Berta_International_Airport,"Ruben Berta",500,2022-07-26T12:43:46+00:00
5892,SBCV,medium_airport,"Caravelas Airport",-17.6523,-39.253101,36,SA,Brazil,BR,Bahia,BR-BA,BA,Caravelas,0,SSCV,CRQ,BA0012,,https://pt.wikipedia.org/wiki/Aeroporto_de_Caravelas,SBCV,275,2021-10-12T22:24:35+00:00
5871,SBBQ,medium_airport,"Major Brigadeiro Doorgal Borges Airport",-21.2672,-43.76101,3657,SA,Brazil,BR,"Minas Gerais",BR-MG,MG,Barbacena,0,SBBQ,,MG9002,,https://pt.wikipedia.org/wiki/Aeroporto_de_Barbacena,QAK,250,2020-12-07T12:49:59+00:00
5877,SBBZ,medium_airport,"Umberto Modiano Airport",-22.770881,-41.96308,10,SA,Brazil,BR,"Rio de Janeiro",BR-RJ,RJ,"Cabo Frio",0,SSBZ,BZC,RJ0012,,https://en.wikipedia.org/wiki/Umberto_Modiano_Airport,SBBZ,250,2019-08-10T22:49:38+00:00
5976,SBST,medium_airport,"Santos Nero Moura Air Base / Guarujá Airport",-23.928192,-46.300195,13,SA,Brazil,BR,"São Paulo",BR-SP,SP,Guarujá,0,SBST,SSZ,SP9006,https://www.fab.mil.br/organizacoes/mostra/50/BASE%20AÉREA%20DE%20SANTOS,https://pt.wikipedia.org/wiki/Base_Aérea_de_Santos,,250,2021-10-07T17:29:41+00:00
5915,SBIC,medium_airport,"Itacoatiara Airport",-3.126539,-58.481668,142,SA,Brazil,BR,Amazonas,BR-AM,AM,Itacoatiara,0,SBIC,ITA,AM0012,,https://pt.wikipedia.org/wiki/Aeroporto_de_Itacoatiara,,250,2021-10-28T21:14:46+00:00
5958,SBPN,medium_airport,"Porto Nacional Airport",-10.719402,-48.3997,870,SA,Brazil,BR,Tocantins,BR-TO,TO,"Porto Nacional",0,SDPE,PNB,TO0003,,https://en.wikipedia.org/wiki/Porto_Nacional_Airport,SBPN,250,2024-05-16T20:18:21+00:00
5969,SBSC,medium_airport,"Santa Cruz Air Force Base",-22.9324,-43.719101,10,SA,Brazil,BR,"Rio de Janeiro",BR-RJ,RJ,"Rio de Janeiro",0,SBSC,SNZ,RJ9003,,https://en.wikipedia.org/wiki/Santa_Cruz_Air_Force_Base,"Santa Cruz AB, Bartolomeu de Gusmão Airport",250,2020-11-05T21:13:15+00:00
5985,SBTL,medium_airport,"Telêmaco Borba Airport",-24.317801,-50.6516,2610,SA,Brazil,BR,Paraná,BR-PR,PR,"Telêmaco Borba",0,SSVL,TEC,PR0007,,https://en.wikipedia.org/wiki/Tel%C3%AAmaco_Borba_Airport,SBTL,250,2022-06-14T23:11:53+00:00
547,SWJI,small_airport,"Ji-Paraná Airport",-10.870743,-61.846675,598,SA,Brazil,BR,Rondônia,BR-RO,RO,Ji-Paraná,1,SBJI,JPR,RO0005,,https://en.wikipedia.org/wiki/Ji-Paran%C3%A1_Airport,SWJI,150,2021-12-05T13:50:58+00:00
516,SSZR,small_airport,"Luis Alberto Lehr Airport",-27.90658,-54.520628,1014,SA,Brazil,BR,"Rio Grande do Sul",BR-RS,RS,"Santa Rosa",1,SSZR,SRA,RS0027,,https://en.wikipedia.org/wiki/Santa_Rosa_Airport_(Brazil),,150,2022-12-21T00:11:31+00:00
5981,SBTD,small_airport,"Toledo - Luiz Dalcanale Filho Municipal Airport",-24.6863,-53.697498,1843,SA,Brazil,BR,Paraná,BR-PR,PR,Toledo,1,SBTD,TOW,PR0008,,https://en.wikipedia.org/wiki/Toledo_Airport_(Brazil),,150,2021-10-12T13:23:00+00:00
299169,SBRR,small_airport,"Barreirinhas National Airport",-2.756644,-42.803187,40,SA,Brazil,BR,Maranhão,BR-MA,MA,Barreirinhas,1,SSRS,BRB,MA0008,,https://en.wikipedia.org/wiki/Barreirinhas_Airport,SBRR,100,2023-01-21T18:35:47+00:00
5881,SBCD,small_airport,"Caçador Airport",-26.787423,-50.939942,3376,SA,Brazil,BR,"Santa Catarina",BR-SC,SC,Caçador,1,SBCD,CFC,SC0006,,https://en.wikipedia.org/wiki/Ca%C3%A7ador_Airport,"Carlos Alberto da Costa Neves Airport",100,2021-09-11T16:58:22+00:00
35414,SBCN,small_airport,"Nelson Ribeiro Guimarães Airport",-17.725096,-48.606324,2307,SA,Brazil,BR,Goiás,BR-GO,GO,"Caldas Novas",1,SBCN,CLV,GO0003,,https://en.wikipedia.org/wiki/Caldas_Novas_Airport,"SWKN, Caldas Novas Airport",100,2021-10-03T12:51:26+00:00
389,SNRU,small_airport,"Caruaru Airport",-8.28239,-36.0135,1891,SA,Brazil,BR,Pernambuco,BR-PE,PE,Caruaru,1,SNRU,CAU,PE0004,,https://en.wikipedia.org/wiki/Caruaru_Airport,"Oscar Laranjeiras",100,2022-10-28T03:23:31+00:00
316444,SBJA,small_airport,"Humberto Ghizzo Bortoluzzi Regional Airport",-28.6753,-49.0596,120,SA,Brazil,BR,"Santa Catarina",BR-SC,SC,Jaguaruna,1,SBJA,JJG,SC0005,http://www.jaguaruna.sc.gov.br/turismo/item/detalhe/6369,https://en.wikipedia.org/wiki/Jaguaruna_Regional_Airport,"Jaguaruna Regional Airport, Aeroporto Regional Sul",100,2021-11-18T10:56:24+00:00
321014,SBSO,small_airport,"Adolino Bedin Regional Airport",-12.479177,-55.672341,1266,SA,Brazil,BR,"Mato Grosso",BR-MT,MT,Sorriso,1,SBSO,SMT,MT0005,https://www4.infraero.gov.br/aeroportos/aeroporto-regional-de-sorriso/,https://en.wikipedia.org/wiki/Sorriso_Airport,SDSS,100,2022-05-03T19:30:21+00:00
432,SSAP,small_airport,"Captain João Busse Airport",-23.609099,-51.384301,2625,SA,Brazil,BR,Paraná,BR-PR,PR,Apucarana,0,SSAP,APU,PR0014,,https://en.wikipedia.org/wiki/Apucarana_Airport,,50,2021-03-25T20:15:17+00:00
485,SSOG,small_airport,"Arapongas Airport",-23.352636,-51.491967,2599,SA,Brazil,BR,Paraná,BR-PR,PR,Arapongas,0,SSOG,APX,PR0027,,https://en.wikipedia.org/wiki/Arapongas_Airport,,50,2024-09-20T15:03:32+00:00
35433,SDBA,small_airport,"Batatais Airport",-20.877218,-47.585757,2890,SA,Brazil,BR,"São Paulo",BR-SP,SP,Batatais,0,SDBA,,SP0063,,,,50,2022-08-29T11:51:11+00:00
35438,BR-1149,small_airport,"Aeroclube Airport",-21.281944,-50.326942,1394,SA,Brazil,BR,"São Paulo",BR-SP,SP,Birigui,0,,,,,,SDBI,50,2020-10-16T16:23:54+00:00
36952,SJWQ,small_airport,"Aeroclube de Birigui - CMTE Munir Djabak Airport",-21.21655,-50.305613,1338,SA,Brazil,BR,"São Paulo",BR-SP,SP,Birigui,0,SJWQ,,SP0221,,https://pt.wikipedia.org/wiki/Aeroclube_de_Birigui,"José Doná Airport, Comandante Munir Djabak",50,2024-05-20T00:55:06+00:00
35566,SDIH,small_airport,"Fazenda Irohy Airport",-23.563384,-46.071598,2467,SA,Brazil,BR,"São Paulo",BR-SP,SP,Biritiba-Mirim,0,SDIH,,SP0108,,,,50,2023-07-26T15:06:00+00:00
551,SWKC,small_airport,"Cáceres Airport",-16.0436,-57.629902,492,SA,Brazil,BR,"Mato Grosso",BR-MT,MT,Cáceres,0,SWKC,CCX,SWKC,,https://pt.wikipedia.org/wiki/Aeroporto_de_C%C3%A1ceres,,50,2024-05-20T01:31:47+00:00
37417,SSCF,small_airport,"Max Fontoura Airport",-25.426398,-49.524194,3140,SA,Brazil,BR,Paraná,BR-PR,PR,"Campo Largo",0,SSCF,,PR0072,,,,50,2021-09-06T01:53:12+00:00
37848,SWEK,small_airport,"Canarana Airport",-13.574444,-52.270557,1314,SA,Brazil,BR,"Mato Grosso",BR-MT,MT,Canarana,0,SWEK,CQA,,,https://en.wikipedia.org/wiki/Canarana_Airport,,50,2024-05-17T07:35:54+00:00
153,SDCA,small_airport,"Capão Bonito Airport",-24.034346,-48.356246,2402,SA,Brazil,BR,"São Paulo",BR-SP,SP,"Capão Bonito",0,SDCA,,SP0051,,https://pt.wikipedia.org/wiki/Aer%C3%B3dromo_de_Cap%C3%A3o_Bonito,,50,2024-05-19T10:15:19+00:00
37546,SSKK,small_airport,"Capão da Canoa Airport",-29.763611,-50.036945,33,SA,Brazil,BR,"Rio Grande do Sul",BR-RS,RS,"Capão Da Canoa",0,SSKK,,RS0052,,,,50,2022-11-24T12:00:27+00:00
292,SNCT,small_airport,"Ubaporanga Airport",-19.7253,-42.112099,2067,SA,Brazil,BR,"Minas Gerais",BR-MG,MG,Caratinga,0,SNCT,,SNCT,,https://en.wikipedia.org/wiki/Ubaporanga_Airport,,50,2024-05-18T23:11:08+00:00
29761,SSQT,small_airport,"Castro Airport",-24.807723,-49.959651,3314,SA,Brazil,BR,Paraná,BR-PR,PR,Castro,0,SSQT,,PR0013,,,"QAC, Major Neodo S. Pereira",50,2022-07-26T11:01:44+00:00
555,SWKT,small_airport,"Catalão Airport",-18.216801,-47.8997,2612,SA,Brazil,BR,Goiás,BR-GO,GO,Catalão,0,SWKT,TLZ,SWKT,,https://pt.wikipedia.org/wiki/Aeroporto_de_Catal%C3%A3o,,50,2024-05-20T01:32:18+00:00
37415,SSCD,small_airport,"Chapadão do Sul Airport",-18.839125,-52.488116,2680,SA,Brazil,BR,"Mato Grosso do Sul",BR-MS,MS,"Chapadão do Sul",0,SSCD,,MS0007,http://www.chapadaodosul.ms.gov.br/noticia/imagens-que-marcaram-a-26a-exposul/2401,,"Júlio Alves Martins",50,2023-01-11T12:37:07+00:00
216,SDXJ,small_airport,"Costa Rica Airport",-18.491283,-53.168135,2428,SA,Brazil,BR,"Mato Grosso do Sul",BR-MS,MS,"Costa Rica",0,SDXJ,,MS0017,,,,50,2022-11-20T19:41:02+00:00
158,SDDR,small_airport,"Dracena Airport",-21.460501,-51.606899,1220,SA,Brazil,BR,"São Paulo",BR-SP,SP,Dracena,0,SDDR,,SP0021,,https://pt.wikipedia.org/wiki/Aeroporto_Muliterno_de_Dracena,QDC,50,2024-05-19T10:16:07+00:00
449,SSER,small_airport,"Erechim Airport",-27.663614,-52.271489,2498,SA,Brazil,BR,"Rio Grande do Sul",BR-RS,RS,Erechim,0,SSER,ERM,RS0018,,https://en.wikipedia.org/wiki/Erechim_Airport,,50,2024-05-29T13:59:59+00:00
167,SDIB,small_airport,"Irmãos Ribeiro Airport",-22.1581,-46.775299,3035,SA,Brazil,BR,"São Paulo",BR-SP,SP,"Espírito Santo Do Pinhal",0,SDIB,,SP0107,,,,50,2023-07-17T10:10:46+00:00
37469,SSFR,small_airport,"Fronteira Airport",-20.278662,-49.187636,1598,SA,Brazil,BR,"Minas Gerais",BR-MG,MG,Fronteira,0,SBFT,,,,,SSFR,50,2020-04-22T00:33:42+00:00
37888,SWGO,small_airport,"Santa Cecília Airport",-15.342632,-49.13533,2219,SA,Brazil,BR,Goiás,BR-GO,GO,Goianésia,0,SWGO,,GO0123,,,,50,2023-04-17T23:44:04+00:00
36848,SJSH,small_airport,"Fly Ville Airport",-27.372117,-48.614509,33,SA,Brazil,BR,"Santa Catarina",BR-SC,SC,"Governador Celso Ramos",0,SJSH,,SC0032,,,"Sonhar Airport",50,2020-12-17T13:32:02+00:00
315,SNGI,small_airport,"Guanambi Airport",-14.2082,-42.746101,1815,SA,Brazil,BR,Bahia,BR-BA,BA,Guanambi,0,SNGI,GNM,SNGI,,https://en.wikipedia.org/wiki/Guanambi_Airport,,50,2024-05-17T07:04:04+00:00
29925,SSGR,small_airport,"Guaporé Airport",-28.894699,-51.855301,1558,SA,Brazil,BR,"Rio Grande do Sul",BR-RS,RS,Guaporé,0,,,RS0033,,,SSGR,50,2021-07-20T23:20:42+00:00
217,SDYW,small_airport,"Aeroclube de Itapeva Airport",-23.941345,-48.881775,2313,SA,Brazil,BR,"São Paulo",BR-SP,SP,Itapeva,0,SDH4,,SP0062,,,SDYW,50,2021-09-21T22:24:29+00:00
219,SDZM,small_airport,"Fazenda São Marcos Airport",-23.9224,-48.818298,2257,SA,Brazil,BR,"São Paulo",BR-SP,SP,Itapeva,0,SD3K,,SP1304,,,"SDCB, SDZM",50,2021-04-10T16:26:58+00:00
35565,SDID,small_airport,"Itararé Airport",-24.135278701782,-49.32833480835,2598,SA,Brazil,BR,"São Paulo",BR-SP,SP,Itararé,0,,,,,,SDID,50,2022-11-12T13:24:00+00:00
172,SDJA,small_airport,"Doutor José Augusto de Arruda Botelho Airport",-22.194598,-47.861839,2569,SA,Brazil,BR,"São Paulo",BR-SP,SP,Itirapina,0,SDJA,,SP0111,,https://pt.wikipedia.org/wiki/Aer%C3%B3dromo_Dr._Jos%C3%A9_Augusto_de_Arruda_Botelho,,50,2024-05-20T00:17:26+00:00
5919,SBIT,small_airport,"Francisco Vilela do Amaral Airport",-18.4447,-49.213402,1630,SA,Brazil,BR,Goiás,BR-GO,GO,Itumbiara,0,SBIT,ITR,GO0035,,https://en.wikipedia.org/wiki/Itumbiara_Airport,"Hidroelétrica Airport",50,2021-10-12T23:32:39+00:00
171,SDIV,small_airport,"Ituverava Airport",-20.374843,-47.769066,2044,SA,Brazil,BR,"São Paulo",BR-SP,SP,Ituverava,0,SDIV,,SP0056,,,,50,2023-08-13T15:26:48+00:00
174,SDJL,small_airport,"Jales Airport",-20.292296,-50.545546,1493,SA,Brazil,BR,"São Paulo",BR-SP,SP,Jales,0,SDJL,JLS,SP0113,,,,50,2023-09-08T04:18:31+00:00
467,SSJA,small_airport,"Santa Terezinha Airport",-27.171514,-51.553327,2546,SA,Brazil,BR,"Santa Catarina",BR-SC,SC,Joaçaba,0,SSJA,JCB,SC0014,,https://en.wikipedia.org/wiki/Joa%C3%A7aba_Airport,,50,2023-08-15T13:54:04+00:00
30067,SDLL,small_airport,"Yolanda Penteado Airport",-22.225963,-47.380834,2057,SA,Brazil,BR,"São Paulo",BR-SP,SP,Leme,0,SDLL,,SP0048,,,,50,2023-12-13T11:19:04+00:00
475,SSLN,small_airport,"Helmuth Baungarten Airport",-27.159999847399998,-49.5424995422,1095,SA,Brazil,BR,"Santa Catarina",BR-SC,SC,Lontras,0,SSLN,LOI,SSLN,,http://pt.wikipedia.org/wiki/Aeroporto_de_Lontras,Baungartem,50,2015-02-24T00:20:15+00:00
185,SDMC,small_airport,"Maricá Airport",-22.9195,-42.830898,5,SA,Brazil,BR,"Rio de Janeiro",BR-RJ,RJ,Maricá,0,SBMI,JMR,RJ0009,,https://en.wikipedia.org/wiki/Maric%C3%A1_Airport,SDMC,50,2024-05-22T10:30:01+00:00
30121,SDLY,small_airport,"Armando Natali Airport",-21.623884,-48.351095,2083,SA,Brazil,BR,"São Paulo",BR-SP,SP,Matão,0,SDLY,,SP0071,,https://pt.wikipedia.org/wiki/Aeroporto_de_Mat%C3%A3o,,50,2024-05-20T00:19:05+00:00
30158,SSNG,small_airport,"Montenegro Airport",-29.71940040588379,-51.48939895629883,125,SA,Brazil,BR,"Rio Grande do Sul",BR-RS,RS,Montenegro,0,SSNG,QGF,,,,,50,2008-06-24T09:40:26+00:00
190,SDNY,closed,"Aeroclube Airport",-22.746482,-43.464918,164,SA,Brazil,BR,"Rio de Janeiro",BR-RJ,RJ,"Nova Iguaçu",0,,,,,https://pt.wikipedia.org/wiki/Aeroclube_de_Nova_Igua%C3%A7u,SDNY,50,2022-04-13T01:03:28+00:00
43312,SDNM,small_airport,"Brigadeiro Eduardo Gomes Airport",-13.821021,-56.038591,1411,SA,Brazil,BR,"Mato Grosso",BR-MT,MT,"Nova Mutum",0,SDNM,NVM,MT0047,,https://en.wikipedia.org/wiki/Nova_Mutum_Airport,SWIW,50,2024-05-03T00:19:23+00:00
30197,SDNH,small_airport,"Novo Horizonte Airport",-21.497551,-49.234441,1526,SA,Brazil,BR,"São Paulo",BR-SP,SP,"Novo Horizonte",0,SDNH,,SP0060,,,,50,2024-05-02T19:43:59+00:00
192,SDOU,small_airport,"Jornalista Benedito Pimentel Airport",-22.966598,-49.912049,1516,SA,Brazil,BR,"São Paulo",BR-SP,SP,Ourinhos,0,SDOU,OUS,SP0023,,https://en.wikipedia.org/wiki/Ourinhos_Airport,,50,2024-05-21T22:34:14+00:00
30235,SDDV,small_airport,"Usina Catanduva Airport",-21.12886,-48.845197,1860,SA,Brazil,BR,"São Paulo",BR-SP,SP,"Palmares Paulista",0,SDDV,,SP0089,,,,50,2022-11-01T08:41:02+00:00
584,SWTO,small_airport,"Paraíso do Tocantins Airport",-10.1742,-48.9328,1083,SA,Brazil,BR,Tocantins,BR-TO,TO,"Paraíso Do Tocantins",0,SWTO,,SWTO,,https://pt.wikipedia.org/wiki/Aeroporto_de_Para%C3%ADso_do_Tocantins,,50,2024-05-20T01:36:28+00:00
571,SWPI,small_airport,"Parintins Airport",-2.673521,-56.777625,87,SA,Brazil,BR,Amazonas,BR-AM,AM,Parintins,0,SWPI,PIN,AM0006,,https://en.wikipedia.org/wiki/Parintins_Airport,,50,2023-01-05T16:58:57+00:00
369,SNPD,small_airport,"Patos de Minas Airport",-18.672673,-46.491292,2794,SA,Brazil,BR,"Minas Gerais",BR-MG,MG,"Patos de Minas",0,SNPD,POJ,MG0010,,https://en.wikipedia.org/wiki/Patos_de_Minas_Airport,"Pedro Pereira dos Santos",50,2024-05-29T13:10:54+00:00
35681,SDPY,small_airport,"Pirassununga Airport",-22.027611,-47.421498,2241,SA,Brazil,BR,"São Paulo",BR-SP,SP,Pirassununga,0,SDPY,,SP0066,,https://pt.wikipedia.org/wiki/Aer%C3%B3dromo_de_Pirassununga,,50,2024-10-19T16:22:12+00:00
30269,SNUH,small_airport,"Piumhi Airport",-20.438600540200003,-45.992801666300004,2444,SA,Brazil,BR,"Minas Gerais",BR-MG,MG,Piumhi,0,SNUH,,,,,,50,2010-05-31T17:21:16+00:00
234,SIPK,small_airport,"SESC Pantanal Airport",-16.4974,-56.422199,348,SA,Brazil,BR,"Mato Grosso",BR-MT,MT,Poconé,0,SIPK,,MT0116,,,,50,2020-08-28T11:47:56+00:00
37069,SNEC,small_airport,"Outeiros da Brisas Airport",-16.712959,-39.142413,130,SA,Brazil,BR,Bahia,BR-BA,BA,"Porto Seguro",0,SNEC,,BA0134,,https://pt.wikipedia.org/wiki/Aeroporto_Outeiro_das_Brisas,,50,2024-05-20T01:02:38+00:00
383,SNRD,small_airport,"Prado Airport",-17.296976,-39.271131,89,SA,Brazil,BR,Bahia,BR-BA,BA,Prado,0,SNRD,PDF,BA0048,,,,50,2021-10-11T17:23:09+00:00
35569,SDIN,closed,"Clube do Céu Airport",-22.997497,-43.40139,3,SA,Brazil,BR,"Rio de Janeiro",BR-RJ,RJ,"Rio de Janeiro",0,,,,,,SDIN,50,2018-12-02T14:01:11+00:00
44713,SJRG,small_airport,"Rio Grande Regional Airport",-32.083065,-52.167184,27,SA,Brazil,BR,"Rio Grande do Sul",BR-RS,RS,"Rio Grande",0,SJRG,RIG,RS0013,,https://en.wikipedia.org/wiki/Rio_Grande_Airport,"SBRG, Gustavo Cramer Airport",50,2020-07-18T21:23:46+00:00
152,SDBP,small_airport,"Fazenda Pontal Airport",-15.736869,-51.116102,1351,SA,Brazil,BR,Goiás,BR-GO,GO,"Santa Fé de Goiás",0,SDBP,,GO0036,,,,50,2022-09-21T13:53:33+00:00
36097,SILT,small_airport,"Fazenda Trêz Irmãos Airport",-20.227777,-50.968334,1460,SA,Brazil,BR,"São Paulo",BR-SP,SP,"Santa Fé Do Sul",0,SILT,SFV,SP0186,,,,50,2024-04-10T12:48:46+00:00
35589,SDJV,small_airport,"São João da Boa Vista Municipal Airport",-22.017744,-46.840779,2501,SA,Brazil,BR,"São Paulo",BR-SP,SP,"São João da Boa Vista",0,SDJV,,SP0035,,,,50,2023-10-19T18:03:41+00:00
336,SNJR,small_airport,"Prefeito Octávio de Almeida Neves Airport",-21.085638,-44.225299,3117,SA,Brazil,BR,"Minas Gerais",BR-MG,MG,"São João Del Rei",0,SNJR,JDR,MG0034,,https://en.wikipedia.org/wiki/S%C3%A3o_Jo%C3%A3o_del-Rei_Airport,,50,2023-08-15T15:31:56+00:00
30374,SDJO,small_airport,"São Joaquim da Barra Airport",-20.594095,-47.841211,2133,SA,Brazil,BR,"São Paulo",BR-SP,SP,"São Joaquim Da Barra",0,SDJO,,SP0057,,,,50,2023-09-23T15:13:53+00:00
35586,SDJR,small_airport,"Fazenda Santa Inês Airport",-20.881442,-49.388393,1804,SA,Brazil,BR,"São Paulo",BR-SP,SP,"São José Do Rio Preto",0,,,,,,SDJR,50,2022-11-13T04:38:31+00:00
354,SNMX,small_airport,"São Mateus - Ernesto Bonomo Airport",-18.7213,-39.833698,98,SA,Brazil,BR,"Espírito Santo",BR-ES,ES,"São Mateus",0,SNMX,SBJ,ES0003,,https://pt.wikipedia.org/wiki/Aeroporto_Ernesto_Bonomo,,50,2021-10-11T15:28:46+00:00
203,SDTF,small_airport,"Tatuí Airport",-23.3319,-47.8783,2083,SA,Brazil,BR,"São Paulo",BR-SP,SP,Tatuí,0,SDTF,,SDTF,,https://pt.wikipedia.org/wiki/Aer%C3%B3dromo_de_Tatu%C3%AD,,50,2024-05-20T00:23:53+00:00
5986,SBTR,small_airport,"Torres Airport",-29.4149,-49.810001,30,SA,Brazil,BR,"Rio Grande do Sul",BR-RS,RS,Torres,0,SSTE,TSQ,RS0011,,https://pt.wikipedia.org/wiki/Aeroporto_de_Torres,SBTR,50,2022-03-13T23:30:46+00:00
30527,SSVN,small_airport,"Veranópolis Airport",-28.935407,-51.568067,2218,SA,Brazil,BR,"Rio Grande do Sul",BR-RS,RS,Veranópolis,0,SSVN,,RS0030,,,,50,2024-06-04T16:30:54+00:00
512,SSVI,small_airport,"Videira Airport",-26.999701,-51.141899,2766,SA,Brazil,BR,"Santa Catarina",BR-SC,SC,Videira,0,SSVI,VIA,SC0011,,https://en.wikipedia.org/wiki/Videira_Airport,,50,2024-05-29T15:08:07+00:00
5889,SBCP,medium_airport,"Bartolomeu Lisandro Airport",-21.698299,-41.301701,59,SA,Brazil,BR,"Rio de Janeiro",BR-RJ,RJ,"Campos Dos Goytacazes",1,SBCP,CAW,RJ0006,http://www.infraero.gov.br/index.php/aeroportos/rio-de-janeiro/aeroporto-de-bartolomeu-lisandro.html,https://en.wikipedia.org/wiki/Bartolomeu_Lysandro_Airport,,750,2023-09-17T10:19:33+00:00
5937,SBME,medium_airport,"Macaé Benedito Lacerda Airport",-22.343,-41.765999,8,SA,Brazil,BR,"Rio de Janeiro",BR-RJ,RJ,Macaé,1,SBME,MEA,RJ0004,,https://en.wikipedia.org/wiki/Maca%C3%A9_Airport,,750,2022-01-29T19:46:01+00:00
5936,SBMD,medium_airport,"Monte Dourado - Serra do Areão Airport",-0.889839,-52.6022,677,SA,Brazil,BR,Pará,BR-PA,PA,Almeirim,1,SBMD,MEU,PA0009,,https://en.wikipedia.org/wiki/Monte_Dourado_Airport,,500,2021-10-30T01:38:20+00:00
538,SWGN,medium_airport,"Araguaína Airport",-7.22787,-48.240501,771,SA,Brazil,BR,Tocantins,BR-TO,TO,Araguaína,1,SWGN,AUX,TO0002,,https://en.wikipedia.org/wiki/Aragua%C3%ADna_Airport,,500,2023-06-01T16:20:04+00:00
5946,SBMY,medium_airport,"Manicoré Airport",-5.81138,-61.278301,174,SA,Brazil,BR,Amazonas,BR-AM,AM,Manicoré,1,SBMY,MNX,AM0015,,https://en.wikipedia.org/wiki/Manicor%C3%A9_Airport,,500,2022-02-20T20:13:53+00:00
5886,SBCJ,medium_airport,"Carajás Airport",-6.117841,-50.003372,2064,SA,Brazil,BR,Pará,BR-PA,PA,Parauapebas,1,SBCJ,CKS,PA0006,http://www.infraero.gov.br/index.php/us/airports/para/carajas-airport.html,https://en.wikipedia.org/wiki/Caraj%C3%A1s_Airport,,500,2021-10-03T11:25:57+00:00
507771,SN6L,medium_airport,"Dr. Luciano de Arruda Coelho Regional Airport",-3.614488,-40.231426,299,SA,Brazil,BR,Ceará,BR-CE,CE,Sobral,1,SN6L,JSO,CE0164,,https://en.wikipedia.org/wiki/Sobral_Regional_Airport,,500,2023-04-03T16:52:33+00:00
5988,SBTT,medium_airport,"Tabatinga Airport",-4.25567,-69.935799,263,SA,Brazil,BR,Amazonas,BR-AM,AM,Tabatinga,1,SBTT,TBT,AM0005,,https://en.wikipedia.org/wiki/Tabatinga_International_Airport,,500,2022-07-01T10:45:28+00:00
5868,SBBG,medium_airport,"Comandante Gustavo Kraemer Airport",-31.390499,-54.112202,600,SA,Brazil,BR,"Rio Grande do Sul",BR-RS,RS,Bagé,0,SBBG,BGX,RS0010,https://www4.infraero.gov.br/aeroportos/aeroporto-internacional-de-bage-comandante-gustavo-kraemer/,https://en.wikipedia.org/wiki/Comandante_Gustavo_Kraemer_Airport,,275,2020-10-06T13:00:21+00:00
5876,SBBW,medium_airport,"Barra do Garças Airport",-15.861417,-52.389008,1147,SA,Brazil,BR,"Mato Grosso",BR-MT,MT,"Barra do Garças",0,SBBW,BPG,MT0008,,https://en.wikipedia.org/wiki/Barra_do_Gar%C3%A7as_Airport,,250,2021-08-09T19:22:24+00:00
5885,SBCI,medium_airport,"Brig. Lysias Augusto Rodrigues Airport",-7.32044,-47.458698,565,SA,Brazil,BR,Maranhão,BR-MA,MA,Carolina,0,SBCI,CLN,MA0003,,https://en.wikipedia.org/wiki/Carolina_(Maranh%C3%A3o)_Airport,,250,2024-05-16T20:17:58+00:00
5898,SBEK,medium_airport,"Jacareacanga Airport",-6.23316,-57.776901,295,SA,Brazil,BR,Pará,BR-PA,PA,Jacareacanga,0,SBEK,JCR,PA0011,,,,250,2021-10-06T13:07:22+00:00
346,SNLN,medium_airport,"Linhares Municipal Airport",-19.355202,-40.07128,138,SA,Brazil,BR,"Espírito Santo",BR-ES,ES,Linhares,0,SNLN,LHN,ES0002,https://linhares.es.gov.br/aeroporto-municipal-de-linhares/,https://pt.wikipedia.org/wiki/Aeroporto_de_Linhares,,250,2023-11-30T13:28:09+00:00
5880,SBCC,medium_airport,"Campo de Provas Brigadeiro Veloso",-9.33394,-54.965401,1777,SA,Brazil,BR,Pará,BR-PA,PA,"Novo Progresso",0,SBCC,,PA9001,https://www.fab.mil.br/organizacoes/mostra/61/CAMPO%20DE%20PROVAS%20BRIGADEIRO%20VELLOSO,https://en.wikipedia.org/wiki/Cachimbo_Airport,Cachimbo,250,2020-11-04T06:52:19+00:00
5950,SBOI,medium_airport,"Oiapoque Airport",3.85412,-51.797056,53,SA,Brazil,BR,Amapá,BR-AP,AP,Oiapoque,0,SBOI,OYK,AP0002,,https://pt.wikipedia.org/wiki/Aeroporto_de_Oiapoque,,250,2021-04-03T01:36:15+00:00
5858,SBAF,medium_airport,"Campo Délio Jardim de Mattos Airport",-22.875099,-43.384701,110,SA,Brazil,BR,"Rio de Janeiro",BR-RJ,RJ,"Rio de Janeiro",0,SBAF,,RJ9002,,https://en.wikipedia.org/wiki/Afonsos_Air_Force_Base,"Afonsos AFB.",250,2020-08-19T20:38:12+00:00
334199,SBJH,medium_airport,"São Paulo Catarina Executive Airport",-23.426886,-47.165658,2547,SA,Brazil,BR,"São Paulo",BR-SP,SP,"São Roque",0,SBJH,JHF,SP1176,http://www.catarinajhsf.com.br/aeroporto,https://en.wikipedia.org/wiki/São_Paulo_Catarina_Executive_Airport,SP9007,250,2021-08-18T11:55:09+00:00
5928,SBLE,small_airport,"Coronel Horácio de Mattos Airport",-12.4823,-41.277,1676,SA,Brazil,BR,Bahia,BR-BA,BA,Lençóis,1,SBLE,LEC,SP0008,,https://en.wikipedia.org/wiki/Len%C3%A7%C3%B3is_Airport,"Chapada Diamantina National Park, Lençóis Airport",150,2022-01-08T20:27:12+00:00
518,SWBC,small_airport,"Barcelos Airport",-0.981191,-62.918603,112,SA,Brazil,BR,Amazonas,BR-AM,AM,Barcelos,1,SWBC,BAZ,AM0017,,https://en.wikipedia.org/wiki/Barcelos_Airport,,100,2022-12-16T18:27:40+00:00
44450,SBDB,small_airport,"Bonito Airport",-21.2473,-56.452399,1180,SA,Brazil,BR,"Mato Grosso do Sul",BR-MS,MS,Bonito,1,SBDB,BYO,MS0004,,https://en.wikipedia.org/wiki/Bonito_Airport,SJDB,100,2021-10-03T16:30:03+00:00
521,SWBR,small_airport,"Borba Airport",-4.40634,-59.602402,98,SA,Brazil,BR,Amazonas,BR-AM,AM,Borba,1,SWBR,RBB,AM0018,,https://en.wikipedia.org/wiki/Borba_Airport,,100,2024-01-17T13:30:41+00:00
414,SNVS,small_airport,"Breves Airport",-1.63653,-50.4436,98,SA,Brazil,BR,Pará,BR-PA,PA,Breves,1,SNVS,BVS,PA0015,,https://en.wikipedia.org/wiki/Breves_Airport,,100,2024-04-27T15:52:55+00:00
45617,SSKW,small_airport,"Cacoal Airport",-11.496,-61.4508,778,SA,Brazil,BR,Rondônia,BR-RO,RO,Cacoal,1,SSKW,OAL,RO0004,,https://en.wikipedia.org/wiki/Cacoal_Airport,,100,2023-08-11T22:12:40+00:00
523,SWCA,small_airport,"Carauari Airport",-4.871473,-66.897552,355,SA,Brazil,BR,Amazonas,BR-AM,AM,Carauari,1,SWCA,CAF,AM0007,,https://en.wikipedia.org/wiki/Carauari_Airport,,100,2023-04-14T02:33:21+00:00
329,SNJD,small_airport,"João Durval Carneiro Airport",-12.200694,-38.906164,781,SA,Brazil,BR,Bahia,BR-BA,BA,"Feira de Santana",1,SDIY,FEC,BA0013,https://www.feiradesantana.ba.gov.br/servicos.asp?s=a&link=secom/webtv.asp&idv=31900,https://en.wikipedia.org/wiki/Feira_de_Santana_Airport,"SNJD, SBFE",100,2023-09-11T19:49:45+00:00
451,SSFB,small_airport,"Paulo Abdala Airport",-26.05938,-53.063827,2113,SA,Brazil,BR,Paraná,BR-PR,PR,"Francisco Beltrão",1,SSFB,FBE,PR0021,,https://en.wikipedia.org/wiki/Francisco_Beltr%C3%A3o_Airport,,100,2024-06-14T15:03:49+00:00
460,SSGY,small_airport,"Guaíra Airport",-24.0811,-54.1917,889,SA,Brazil,BR,Paraná,BR-PR,PR,Guaíra,1,SSGY,GGJ,PR0023,,https://en.wikipedia.org/wiki/Gua%C3%ADra_Airport,"Walter Martins de Oliveira Municipal, QGA",100,2023-06-07T14:32:16+00:00
312,SNGA,small_airport,"Guarapari Airport",-20.6465,-40.491901,30,SA,Brazil,BR,"Espírito Santo",BR-ES,ES,Guarapari,1,SNGA,GUZ,ES0007,,http://pt.wikipedia.org/wiki/Aeroporto_de_Guarapari,,100,2023-09-13T15:20:46+00:00
37796,SWBG,small_airport,"André Antônio Maggi Airport",-15.1934,-59.3848,870,SA,Brazil,BR,"Mato Grosso",BR-MT,MT,"Pontes e Lacerda",1,SWBG,LCB,MT0009,,https://en.wikipedia.org/wiki/Pontes_e_Lacerda_Airport,"União do Vale Airport",100,2024-01-17T12:29:56+00:00
391,SNSM,small_airport,"Salinópolis Airport",-0.696111,-47.336111,105,SA,Brazil,BR,Pará,BR-PA,PA,Salinópolis,1,SNSM,OPP,SNSM,,https://en.wikipedia.org/wiki/Salin%C3%B3polis_Airport,,100,2022-05-10T20:47:34+00:00
320,SNHS,small_airport,"Santa Magalhães Airport",-8.061433,-38.328888,1542,SA,Brazil,BR,Pernambuco,BR-PE,PE,"Serra Talhada",1,SNHS,SET,PE0005,https://infracea.com.br/aeroporto-de-serra-talhada-pe/,https://en.wikipedia.org/wiki/Serra_Talhada_Airport,,100,2023-06-07T12:44:11+00:00
509,SSUM,small_airport,"Orlando de Carvalho Airport",-23.7987,-53.313801,1552,SA,Brazil,BR,Paraná,BR-PR,PR,Umuarama,1,SSUM,UMU,PR0019,,https://en.wikipedia.org/wiki/Umuarama_Airport,,100,2022-08-04T23:40:14+00:00
510,SSUV,small_airport,"União da Vitória Airport",-26.233224,-51.066754,2467,SA,Brazil,BR,Paraná,BR-PR,PR,"União da Vitória",1,SSUV,UVI,PR0034,,https://en.wikipedia.org/wiki/Uni%C3%A3o_da_Vit%C3%B3ria_Airport,"José Cleto, QVB",100,2023-06-07T13:33:39+00:00
321011,SNEE,small_airport,"Vacaria Airport",-28.43248,-51.023322,2999,SA,Brazil,BR,"Rio Grande do Sul",BR-RS,RS,Vacaria,1,SNEE,VCC,RS0004,,https://en.wikipedia.org/wiki/Vacaria_Airport,,100,2023-06-01T01:32:50+00:00
256,SJER,small_airport,"Fazenda Canadá Airport",-17.360044,-50.338433,1811,SA,Brazil,BR,Goiás,BR-GO,GO,Acreúna,0,SJER,,GO0070,,,,50,2020-09-30T01:36:56+00:00
142,SDAD,small_airport,"Everaldo Moras Barreto Airport",-21.696275,-51.097509,1394,SA,Brazil,BR,"São Paulo",BR-SP,SP,Adamantina,0,SDAD,,SP0046,,https://pt.wikipedia.org/wiki/Aer%C3%B3dromo_de_Adamantina,,50,2024-05-19T10:14:36+00:00
37902,SWHP,small_airport,"Frederico Carlos Müller Airport",-14.019959,-52.152003,1476,SA,Brazil,BR,"Mato Grosso",BR-MT,MT,"Água Boa",0,SWHP,GGB,MT0006,https://noticiasinterativa.com.br/economia/,https://en.wikipedia.org/wiki/%C3%81gua_Boa_Airport,Olhos-d'Água,50,2023-02-12T11:44:45+00:00
37389,SSAG,small_airport,"Fazenda Lobo Airport",-19.711728,-52.726921,1410,SA,Brazil,BR,"Mato Grosso do Sul",BR-MS,MS,"Água Clara",0,SSAG,,MS0244,,,"Agropecuária Lobo Ltda",50,2021-03-25T16:41:09+00:00
477,SSLT,small_airport,"Alegrete Novo Airport",-29.811595,-55.894707,410,SA,Brazil,BR,"Rio Grande do Sul",BR-RS,RS,Alegrete,0,SSLT,ALQ,RS0022,,https://en.wikipedia.org/wiki/Alegrete_Airport,,50,2023-11-13T14:53:31+00:00
306,SNFE,small_airport,"Comandante Paschoal Patrocínio Filho Airport",-21.4314,-45.932098,2871,SA,Brazil,BR,"Minas Gerais",BR-MG,MG,Alfenas,0,SNFE,,SNFE,,https://pt.wikipedia.org/wiki/Aeroporto_de_Alfenas,,50,2018-07-13T11:56:23+00:00
334916,BR-0687,small_airport,"Fazenda Galiléia Airport",-11.560653,-47.147057,1529,SA,Brazil,BR,Tocantins,BR-TO,TO,Almas,0,SWFZ,,TO0058,,,,50,2020-06-28T15:51:14+00:00
351276,SDU3,small_airport,"Fazenda Ipiranga Airport",-11.66442,-47.177707,1302,SA,Brazil,BR,Tocantins,BR-TO,TO,Almas,0,SDU3,,TO0103,,,,50,2022-01-06T23:28:00+00:00
37881,SWFZ,small_airport,"Fazenda Shalon Airport",-9.987398,-56.675869,876,SA,Brazil,BR,"Mato Grosso",BR-MT,MT,"Alta Floresta",0,SDSH,,MT0060,,,"SWFZ, Serafino Ferruzzi",50,2019-10-12T13:26:35+00:00
36867,SJTF,small_airport,"Fazenda Mequens Airport",-13.061944007873535,-62.25749969482422,552,SA,Brazil,BR,Rondônia,BR-RO,RO,"Alta Floresta D`Oeste",0,SJTF,,,,,,50,2009-08-16T13:34:16+00:00
220,SDZS,small_airport,"Fazenda Bananeira Airport",-20.579999923706,-49.079700469971,1673,SA,Brazil,BR,"São Paulo",BR-SP,SP,Altair,0,,,SDZS,,,SDZS,50,2022-11-12T13:24:30+00:00
44560,SSXN,small_airport,"Aéreo Amazônia Airport",-8.298333333,-55.11472222,820,SA,Brazil,BR,Pará,BR-PA,PA,Altamira,0,SSXN,,,,,,50,2010-01-01T16:52:51+00:00
37790,SWAT,small_airport,"Fazenda Cachoeira Airport",-17.095972,-53.346133,2795,SA,Brazil,BR,"Mato Grosso",BR-MT,MT,"Alto Araguaia",0,,,,,,SWAT,50,2020-05-02T02:34:03+00:00
331636,BR-0451,small_airport,"Fazenda Palmeira Airport",-17.926765,-53.220476,2953,SA,Brazil,BR,"Mato Grosso",BR-MT,MT,"Alto Taquari",0,SNPW,,MT0263,,,,50,2019-07-12T13:24:19+00:00
5859,SBAM,small_airport,"Amapá Airport",2.07751,-50.8582,45,SA,Brazil,BR,Amapá,BR-AP,AP,Amapá,0,SBAM,,,,https://pt.wikipedia.org/wiki/Aeroporto_de_Amap%C3%A1,,50,2016-06-01T05:33:10+00:00
276,SNAZ,small_airport,"Amargosa Airport",-12.9936,-39.639902,1394,SA,Brazil,BR,Bahia,BR-BA,BA,Amargosa,0,,,,,,SNAZ,50,2018-08-05T21:35:28+00:00
36638,SJJW,small_airport,"Fazenda Santa Emília Airport",-19.507939,-55.614402,443,SA,Brazil,BR,"Mato Grosso do Sul",BR-MS,MS,Aquidauana,0,,,,,,SJJW,50,2020-12-06T20:08:43+00:00
37487,SSGX,small_airport,"Fazenda Rio Negro Airport",-19.569416,-56.245297,358,SA,Brazil,BR,"Mato Grosso do Sul",BR-MS,MS,Aquidauana,0,SNIH,,MS0209,,,SSGX,50,2022-04-26T10:02:11+00:00
37538,SSKB,small_airport,"Fazenda Tupanciretan Airport",-19.474443435668945,-56.377220153808594,312,SA,Brazil,BR,"Mato Grosso do Sul",BR-MS,MS,Aquidauana,0,SSKB,,,,,,50,2008-06-24T09:40:26+00:00
336183,BR-1101,small_airport,"Catuleve Airport",-3.939457,-38.378971,75,SA,Brazil,BR,Ceará,BR-CE,CE,Aquiraz,0,SJCM,,CE0017,,,,50,2021-10-11T15:07:05+00:00
35450,SDCC,closed,"Country Club Orgabil Airport",-21.218741,-50.40596,1253,SA,Brazil,BR,"São Paulo",BR-SP,SP,Araçatuba,0,,,,,,SDCC,50,2022-07-28T19:19:41+00:00
228,SIFV,small_airport,"Primo Bitti Airport",-19.825829,-40.102168,85,SA,Brazil,BR,"Espírito Santo",BR-ES,ES,Aracruz,0,SIFV,,ES0008,,,,50,2023-09-13T15:17:22+00:00
268,SNAG,small_airport,"Araguari Airport",-18.668301,-48.190498,3107,SA,Brazil,BR,"Minas Gerais",BR-MG,MG,Araguari,0,SNAG,,MG0020,,,,50,2023-08-16T19:51:30+00:00
38002,SWON,small_airport,"Clube de Aviação Céu Azul Airport",-26.561531,-48.696048,16,SA,Brazil,BR,"Santa Catarina",BR-SC,SC,Araquari,0,SWON,,SWON,,,,50,2018-09-02T15:26:33+00:00
36066,SIKK,small_airport,"Calciolândia Airport",-20.250557,-45.645,2180,SA,Brazil,BR,"Minas Gerais",BR-MG,MG,Arcos,0,SIKK,,MG0102,,,,50,2020-08-20T11:58:59+00:00
30627,SWRP,small_airport,"Aripuanã Airport",-10.187375,-59.457469,755,SA,Brazil,BR,"Mato Grosso",BR-MT,MT,Aripuanã,0,SSOU,AIR,MT0303,,https://en.wikipedia.org/wiki/Aripuan%C3%A3_Airport,SWRP,50,2023-07-22T21:59:03+00:00
35531,SDGP,small_airport,"Hotel Fazenda Capricho Airport",-23.221801,-48.790794,2099,SA,Brazil,BR,"São Paulo",BR-SP,SP,Avaré,0,,,,,,SDGP,50,2018-09-16T11:58:40+00:00
199,SDRR,small_airport,"Avaré-Arandu Airport",-23.092501,-48.987401,2657,SA,Brazil,BR,"São Paulo",BR-SP,SP,Avaré,0,SDRR,,SDRR,,https://en.wikipedia.org/wiki/Avar%C3%A9-Arandu_Airport,"Comte. Luiz Gonzaga Luth Regional Airport, QVP",50,2017-01-07T14:22:11+00:00
507,SSTH,small_airport,"Fazenda Thália Airport",-25.520223,-49.682472,3346,SA,Brazil,BR,Paraná,BR-PR,PR,"Balsa Nova",0,SDUE,,PR0040,,,SSTH,50,2023-07-27T12:07:00+00:00
36053,SIJR,small_airport,"Ely Rego Airport",-25.539024,-49.60236,2592,SA,Brazil,BR,Paraná,BR-PR,PR,"Balsa Nova",0,SIJR,,PR0045,,,,50,2020-08-14T19:31:35+00:00
322534,BR-0139,small_airport,"Asas de Balsa Nova Airport",-25.549311,-49.643565,2907,SA,Brazil,BR,Paraná,BR-PR,PR,"Balsa Nova",0,SJPR,,PR0059,http://aeroclubeasas.com.br/aero-asas/,https://pt.wikipedia.org/wiki/Aeroclube_Asas_de_Balsa_Nova,,50,2024-05-19T10:01:58+00:00
37950,SWLI,small_airport,"Fazenda Liberdade Airport",-17.005154,-56.471658,361,SA,Brazil,BR,"Mato Grosso",BR-MT,MT,"Barão de Melgaço",0,,,,,,SWLI,50,2022-02-17T14:32:30+00:00
29686,SDBY,small_airport,"Bariri - Aparecido O. Silva Airport",-22.069201,-48.706402,1594,SA,Brazil,BR,"São Paulo",BR-SP,SP,Bariri,0,SDBY,,SP0032,,,,50,2022-09-21T14:57:08+00:00
28106,SWRK,heliport,"Pedreira Pombal Fazenda Recanto Heliport",-22.486884,-44.257678,1492,SA,Brazil,BR,"Rio de Janeiro",BR-RJ,RJ,"Barra Mansa",0,SWRK,,SWRK,,,,50,2013-10-06T16:15:56+00:00
37059,SNDH,small_airport,"Aba Airport",-12.162858,-45.033695,1682,SA,Brazil,BR,Bahia,BR-BA,BA,Barreiras,0,SNDH,,,,,,50,2018-08-18T11:47:27+00:00
385,SNRH,small_airport,"Rachid Saliba Airport",-21.039400100708,-45.872200012207,2625,SA,Brazil,BR,"Minas Gerais",BR-MG,MG,"Boa Esperança",0,,,SNRH,,,SNRH,50,2022-11-12T13:28:24+00:00
565,SWNK,small_airport,"Novo Campo Airport",-8.83456,-67.312401,394,SA,Brazil,BR,Amazonas,BR-AM,AM,"Boca do Acre",0,SWNK,BCR,SWNK,,,SBBA,50,2018-03-10T14:42:52+00:00
35656,SDOI,small_airport,"Centro Nacional de Pára-quedismo Airport",-23.298338,-47.692448,2051,SA,Brazil,BR,"São Paulo",BR-SP,SP,Boituva,0,SDOI,,SP0130,,,,50,2024-06-11T13:56:52+00:00
37403,SSBJ,closed,"Bom Jesus Airport",-28.605654,-50.451363,3514,SA,Brazil,BR,"Rio Grande do Sul",BR-RS,RS,"Bom Jesus",0,,,,,,"SSBJ, RS0016",50,2022-12-17T12:55:37+00:00
328010,BR-0322,small_airport,"Ninho do Bacurau",-13.248888,-43.496667,1447,SA,Brazil,BR,Bahia,BR-BA,BA,"Bom Jesus da Lapa",0,SDDB,,BA0070,,,,50,2022-10-14T17:04:03+00:00
36200,SIQE,small_airport,"Botelho Airport",-15.937469,-47.726636,3399,SA,Brazil,BR,"Distrito Federal",BR-DF,DF,Brasília,0,SIQE,,DF0005,,,"Esquadrilha Fox",50,2021-03-08T14:03:55+00:00
333559,BR-0577,small_airport,"COOPA-DF Airport",-16.014444,-47.558056,3442,SA,Brazil,BR,"Distrito Federal",BR-DF,DF,Brasília,0,SSWB,,DF0008,,,,50,2020-03-08T22:54:50+00:00
35424,SDAN,small_airport,"Fazenda Santo Ângelo Airport",-22.245274,-48.259931,1680,SA,Brazil,BR,"São Paulo",BR-SP,SP,Brotas,0,SDAN,,SP0078,,,,50,2021-11-11T15:44:39+00:00
342604,SD4G,small_airport,"Fazenda Chocolate Airstrip",-9.567788,-68.290944,610,SA,Brazil,BR,Acre,BR-AC,AC,Bujari,0,SD4G,,AC0018,,,,50,2021-04-01T20:37:38+00:00
35580,SDJF,small_airport,"Fazenda Jequitibá Airport",-23.846065,-48.448055,2310,SA,Brazil,BR,"São Paulo",BR-SP,SP,Buri,0,SDJF,,SP0112,,,,50,2023-09-01T00:04:10+00:00
44727,SSDI,small_airport,"Fazenda Bacatuba Airport",-5.659765,-43.705702,584,SA,Brazil,BR,Maranhão,BR-MA,MA,"Buriti Bravo",0,SSDI,,MA0044,,,,50,2024-05-10T16:33:18+00:00
29745,SSWS,small_airport,"Caçapava do Sul Airport",-30.549625,-53.458177,1365,SA,Brazil,BR,"Rio Grande do Sul",BR-RS,RS,"Caçapava do Sul",0,SSWS,,RS0025,https://cacapavadosul.rs.gov.br/noticia/visualizar/id/2856/?aeroporto-de-cacapava-do-sul-recebe-liberacao-da-anac.html,,,50,2022-07-02T20:34:04+00:00
473,SSKS,small_airport,"Cachoeira do Sul Airport",-30.00189971923828,-52.940799713134766,253,SA,Brazil,BR,"Rio Grande do Sul",BR-RS,RS,"Cachoeira Do Sul",0,SSKS,QDB,SSKS,,,,50,2008-06-24T09:40:26+00:00
181,SDLK,small_airport,"Caculé Airport",-14.4812,-42.264702,2064,SA,Brazil,BR,Bahia,BR-BA,BA,Caculé,0,SDLK,,BA0040,,,,50,2023-12-13T10:43:14+00:00
30833,SNWC,small_airport,"Camocim - Pinto Martins Airport",-2.895596,-40.859299,16,SA,Brazil,BR,Ceará,BR-CE,CE,Camocim,0,SNWC,CMC,,,https://pt.wikipedia.org/wiki/Aeroporto_de_Camocim,,50,2024-05-20T01:13:11+00:00
29752,SNCV,small_airport,"Campina Verde Airport",-19.551478,-49.497425,1805,SA,Brazil,BR,"Minas Gerais",BR-MG,MG,"Campina Verde",0,SNCV,,MG0062,,,,50,2021-01-13T23:45:17+00:00
289,SNCA,small_airport,"Campo Belo Airport",-20.89229965209961,-45.33509826660156,3182,SA,Brazil,BR,"Minas Gerais",BR-MG,MG,"Campo Belo",0,SNCA,,SNCA,,,,50,2008-06-24T09:40:26+00:00
36334,SIWJ,small_airport,"Campo Verde Airport",-15.528713,-55.141441,2533,SA,Brazil,BR,"Mato Grosso",BR-MT,MT,"Campo Verde",0,SDLZ,,MT0042,,,"SIWJ, Luiz Eduardo Magalhães",50,2024-01-12T23:51:36+00:00
38014,SWOZ,small_airport,"Fazenda Santo Antônio Airport",-15.310556411743164,-54.899166107177734,2164,SA,Brazil,BR,"Mato Grosso",BR-MT,MT,"Campo Verde",0,SWOZ,,,,,,50,2008-06-24T09:40:26+00:00
37994,SWOC,small_airport,"Fazenda São Bento do Bocajá Airport",-22.025278091430664,-57.364723205566406,443,SA,Brazil,BR,"Mato Grosso do Sul",BR-MS,MS,Caracol,0,SWOC,,,,,,50,2008-06-24T09:40:26+00:00
35592,SDKB,small_airport,"Casa Branca Municipal Airport",-21.788055,-47.055557,2346,SA,Brazil,BR,"São Paulo",BR-SP,SP,"Casa Branca",0,SSCB,,SP0044,,,SDKB,50,2019-09-21T12:37:50+00:00
38145,SWWZ,small_airport,"Darinha Airport",-4.109722,-38.242778,62,SA,Brazil,BR,Ceará,BR-CE,CE,Cascavel,0,SJND,,CE0020,,,SWWZ,50,2020-10-18T21:43:53+00:00
37420,SSCL,small_airport,"Cassilândia Airport",-19.146861,-51.676941,1568,SA,Brazil,BR,"Mato Grosso do Sul",BR-MS,MS,Cassilândia,0,SSCL,CSS,MS0018,,,,50,2020-06-17T00:01:15+00:00
417,SNXB,small_airport,"Caxambu Airport",-21.917066,-44.96817,2838,SA,Brazil,BR,"Minas Gerais",BR-MG,MG,Caxambu,0,SNXB,,MG0025,,https://pt.wikipedia.org/wiki/Aeroporto_de_Caxambu,,50,2024-05-20T01:13:47+00:00
29770,SWCZ,small_airport,"Ceres Airport",-15.34422,-49.604019,1962,SA,Brazil,BR,Goiás,BR-GO,GO,Ceres,0,SWCZ,,GO0024,,https://pt.wikipedia.org/wiki/Aeroporto_de_Ceres,,50,2024-06-03T19:50:13+00:00
554,SWKO,small_airport,"Coari Airport",-4.13406,-63.132599,131,SA,Brazil,BR,Amazonas,BR-AM,AM,Coari,0,SWKO,CIZ,SWKO,,https://en.wikipedia.org/wiki/Coari_Airport,,50,2024-05-17T07:37:11+00:00
337870,SJQP,small_airport,"Estância Rebog Airport",-12.801619,-50.628347,801,SA,Brazil,BR,"Mato Grosso",BR-MT,MT,Cocalinho,0,SJQP,,MT0211,,,,50,2020-12-16T19:05:58+00:00
294,SNCX,small_airport,"Colatina Airport",-19.487476,-40.579362,502,SA,Brazil,BR,"Espírito Santo",BR-ES,ES,Colatina,0,SNCX,QCH,ES0004,,https://pt.wikipedia.org/wiki/Aeroporto_de_Colatina,,50,2023-09-13T11:36:01+00:00
339,SNKD,small_airport,"Conceição do Mato Dentro Airport",-19.020299911499023,-43.43389892578125,2196,SA,Brazil,BR,"Minas Gerais",BR-MG,MG,"Conceição Do Mato Dentro",0,SNKD,,SNKD,,,,50,2008-06-24T09:40:26+00:00
30824,SJHG,small_airport,"Confresa Airport",-10.633296,-51.565836,781,SA,Brazil,BR,"Mato Grosso",BR-MT,MT,Confresa,0,SJHG,CFO,MT0176,,https://en.wikipedia.org/wiki/Confresa_Airport,,50,2024-05-16T20:27:35+00:00
32186,SNKF,small_airport,"Das Bandeirinhas Airport",-20.738585,-43.797444,3478,SA,Brazil,BR,"Minas Gerais",BR-MG,MG,"Conselheiro Lafaiete",0,SNKF,,,,https://pt.wikipedia.org/wiki/Aeroporto_de_Conselheiro_Lafaiete,QDF,50,2024-05-20T01:05:56+00:00
443,SSCP,small_airport,"Cornélio Procópio Airport",-23.152711,-50.602868,1860,SA,Brazil,BR,Paraná,BR-PR,PR,"Cornélio Procópio",0,SSCP,CKO,PR0015,,https://en.wikipedia.org/wiki/Corn%C3%A9lio_Proc%C3%B3pio_Airport,,50,2023-01-11T16:55:31+00:00
36077,SIKY,small_airport,"Fazenda Beira Rio Airport",-18.719444274902,-53.337501525879,2100,SA,Brazil,BR,"Mato Grosso do Sul",BR-MS,MS,"Costa Rica",0,,,,,,SIKY,50,2022-11-12T13:25:04+00:00
440,SSCI,small_airport,"Coxim Airport",-18.477699,-54.714699,965,SA,Brazil,BR,"Mato Grosso do Sul",BR-MS,MS,Coxim,0,SSCI,,MS0012,,,,50,2023-01-11T12:57:50+00:00
36474,SJCY,small_airport,"Estância Santa Rita Airport",-15.680085,-55.95603,617,SA,Brazil,BR,"Mato Grosso",BR-MT,MT,Cuiabá,0,SJCY,,MT0166,,https://pt.wikipedia.org/wiki/Aer%C3%B3dromo_Est%C3%A2ncia_Santa_Rita,,50,2024-05-20T00:46:55+00:00
328369,SIAQ,small_airport,"Bom Futuro Airport",-15.506389,-56.098333,768,SA,Brazil,BR,"Mato Grosso",BR-MT,MT,Cuiabá,0,SIAQ,,MT0078,,,,50,2024-01-08T15:19:35+00:00
37283,SNUS,small_airport,"Usina Delta I Airport",-19.941324,-47.771367,2100,SA,Brazil,BR,"Minas Gerais",BR-MG,MG,Delta,0,SNUS,,MG0164,,,,50,2024-02-14T15:53:37+00:00
335929,BR-1082,small_airport,"Mocelin II Airport",-25.684586,-53.06747,1752,SA,Brazil,BR,Paraná,BR-PR,PR,"Dois Vizinhos",0,SIZM,,PR0054,,,,50,2020-09-21T18:14:41+00:00
36886,SJTZ,small_airport,"Dom Eliseu Airport",-4.3027777671813965,-47.581668853759766,800,SA,Brazil,BR,Pará,BR-PA,PA,"Dom Eliseu",0,SJTZ,,,,,,50,2008-06-24T09:40:26+00:00
37506,SSIC,small_airport,"APLIC Aviação Agrícola Ltda Airport",-22.30666732788086,-54.82444381713867,1405,SA,Brazil,BR,"Mato Grosso do Sul",BR-MS,MS,Dourados,0,SSIC,,,,,,50,2008-06-24T09:40:26+00:00
532,SWEI,small_airport,"Eirunepé Airport",-6.63953,-69.879799,412,SA,Brazil,BR,Amazonas,BR-AM,AM,Eirunepé,0,SWEI,ERN,SWEI,,https://en.wikipedia.org/wiki/Eirunep%C3%A9_Airport,,50,2024-05-17T07:35:31+00:00
36354,SIXE,small_airport,"Aeroclube de Eldorado do Sul Airport",-30.050278,-51.443611,33,SA,Brazil,BR,"Rio Grande do Sul",BR-RS,RS,"Eldorado Do Sul",0,SIXE,,RS0072,,,,50,2020-10-09T22:44:20+00:00
37457,SSEZ,small_airport,"Espumoso Airport",-28.738719,-52.857248,1198,SA,Brazil,BR,"Rio Grande do Sul",BR-RS,RS,Espumoso,0,SSEZ,,RS0050,,,,50,2024-06-14T14:29:36+00:00
37444,SSEE,small_airport,"Vale do Taquari Regional Airport",-29.453107,-51.934072,105,SA,Brazil,BR,"Rio Grande do Sul",BR-RS,RS,Estrela,0,SSEE,,RS0054,,,,50,2024-05-11T15:32:12+00:00
37067,SNEA,small_airport,"Piçarrão Airport",-18.721389770508,-47.86555480957,3166,SA,Brazil,BR,"Minas Gerais",BR-MG,MG,"Estrela Do Sul",0,,,,,,SNEA,50,2022-11-12T13:27:31+00:00
257,SJFF,small_airport,"Frigo Estrela Airport",-20.294722,-50.41055,1595,SA,Brazil,BR,"São Paulo",BR-SP,SP,"Estrela D`Oeste",0,SJFF,,SP0207,,,,50,2020-10-02T13:46:23+00:00
36491,SJDS,small_airport,"M Dias Branco Airport",-3.917155,-38.489179,66,SA,Brazil,BR,Ceará,BR-CE,CE,Eusébio,0,SJDS,,CE0018,,,"Fábrica Fortaleza",50,2021-10-11T15:07:41+00:00
32334,SNFO,small_airport,"Formiga Airport",-20.395299911499023,-45.48360061645508,3337,SA,Brazil,BR,"Minas Gerais",BR-MG,MG,Formiga,0,SNFO,,,,,,50,2008-06-24T09:40:26+00:00
37080,SNFF,small_airport,"Feijó Airport",-3.809903,-38.614597,82,SA,Brazil,BR,Ceará,BR-CE,CE,Fortaleza,0,SNFF,,,,,,50,2021-10-11T15:08:26+00:00
452,SSFE,small_airport,"Estância Hércules Airport",-25.460699,-54.598468,584,SA,Brazil,BR,Paraná,BR-PR,PR,"Foz do Iguaçu",0,SSFE,,PR0075,,,,50,2024-06-14T16:30:35+00:00
37708,SSWF,small_airport,"Frederico Westphalen Airport",-27.347778,-53.4025,1857,SA,Brazil,BR,"Rio Grande do Sul",BR-RS,RS,"Frederico Westphalen",0,,,,https://www.facebook.com/aeroclubeFW,https://pt.wikipedia.org/wiki/Aeroporto_de_Frederico_Westphalen,"SSWF, SSOW",50,2022-11-12T13:29:17+00:00
316,SNGN,small_airport,"Garanhuns Airport",-8.83428,-36.4716,2533,SA,Brazil,BR,Pernambuco,BR-PE,PE,Garanhuns,0,SNGN,QGP,SNGN,,https://en.wikipedia.org/wiki/Garanhuns_Airport,,50,2024-05-17T07:04:51+00:00
455,SSGA,small_airport,"Garibaldi Airport",-29.269047,-51.531674,2231,SA,Brazil,BR,"Rio Grande do Sul",BR-RS,RS,Garibaldi,0,SSGA,,RS0020,,,,50,2024-09-11T22:09:50+00:00
35980,SIGN,small_airport,"Asa Delta Airport",-15.571389198303223,-53.233612060546875,1585,SA,Brazil,BR,"Mato Grosso",BR-MT,MT,"General Carneiro",0,SIGN,,,,,,50,2008-06-24T09:40:26+00:00
37993,SWOA,small_airport,"Arnapar Airport",-16.539443969726562,-49.398887634277344,2625,SA,Brazil,BR,Goiás,BR-GO,GO,Goianira,0,SWOA,,,,,,50,2008-06-24T09:40:26+00:00
322529,BR-0135,small_airport,"Goiás Airport",-15.920225,-50.193045,,SA,Brazil,BR,Goiás,BR-GO,GO,Goiás,0,,,,,,,50,2017-03-30T17:19:00+00:00
29923,SIII,small_airport,"Doutor Heráclito da Motta Luiz Airport",-20.433126,-48.225367,1798,SA,Brazil,BR,"São Paulo",BR-SP,SP,Guaíra,0,SIII,,SP0183,,,,50,2020-08-09T12:58:52+00:00
456,SSGB,small_airport,"Guaratuba Airport",-25.881559,-48.611759,49,SA,Brazil,BR,Paraná,BR-PR,PR,Guaratuba,0,SSGB,,PR0035,,https://pt.wikipedia.org/wiki/Aeroporto_de_Guaratuba,,50,2024-09-11T23:15:08+00:00
463,SSHZ,small_airport,"Walter Bündchen Airport",-27.6383,-54.3391,1063,SA,Brazil,BR,"Rio Grande do Sul",BR-RS,RS,Horizontina,0,SSHZ,HRZ,SSHZ,,https://pt.wikipedia.org/wiki/Aeroporto_de_Horizontina,,50,2024-05-20T01:19:04+00:00
542,SWHT,small_airport,"Humaitá Airport",-7.532120227810001,-63.072101593,230,SA,Brazil,BR,Amazonas,BR-AM,AM,Humaitá,0,SWHT,HUW,SWHT,,https://en.wikipedia.org/wiki/Humait%C3%A1_Airport,,50,2014-11-23T12:52:52+00:00
429,SSAB,small_airport,"Moisés Lupion Airport",-23.762199,-50.263,1968,SA,Brazil,BR,Paraná,BR-PR,PR,Ibaiti,0,SSAB,,PR0024,,,,50,2021-03-25T15:00:53+00:00
604,SWYV,small_airport,"Clube Aerodesportivo de Ibirá Airport",-21.09149,-49.224249,1578,SA,Brazil,BR,"São Paulo",BR-SP,SP,Ibirá,0,SWYV,,SP0285,,,"Clube de Marte Ibirá de Pará-Quedismo",50,2024-05-23T19:01:37+00:00
324,SNIG,small_airport,"Iguatu Airport",-6.346319,-39.294448,699,SA,Brazil,BR,Ceará,BR-CE,CE,Iguatu,0,SNIG,QIG,CE0007,,https://en.wikipedia.org/wiki/Iguatu_Airport,,50,2022-07-30T19:04:34+00:00
466,SSIJ,small_airport,"João Batista Bos Filho Airport",-28.368711,-53.846568,1197,SA,Brazil,BR,"Rio Grande do Sul",BR-RS,RS,Ijuí,0,SSIJ,IJU,RS0032,,https://en.wikipedia.org/wiki/Iju%C3%AD_Airport,,50,2022-01-18T16:39:36+00:00
505210,BR-1754,small_airport,"Aeródromo Sunset",-28.179474,-48.682791,82,SA,Brazil,BR,"Santa Catarina",BR-SC,SC,Imbituba,0,SSET,,SC0037,,,,50,2023-10-08T10:40:10+00:00
35914,SIDN,small_airport,"Fazenda Ipanema Airport",-23.425556182861,-47.581390380859,1985,SA,Brazil,BR,"São Paulo",BR-SP,SP,Iperó,0,,,,,,SIDN,50,2022-11-12T13:24:43+00:00
35486,SDED,small_airport,"Scoda Aeronáutica Airport",-22.440516,-47.700402,2008,SA,Brazil,BR,"São Paulo",BR-SP,SP,Ipeúna,0,SDED,,SP0092,,,"EDRA Aeronáutica",50,2022-12-19T16:23:05+00:00
35985,SIGT,small_airport,"Fazenda Goiabeira Airport",-23.989445,-49.179169,2260,SA,Brazil,BR,"São Paulo",BR-SP,SP,Itaberá,0,SIGT,,SP0177,,,,50,2020-08-05T23:33:37+00:00
329420,SIJY,small_airport,"Campo Comandantes Airport",-26.983055,-48.816387,33,SA,Brazil,BR,"Santa Catarina",BR-SC,SC,Itajaí,0,SIJY,ITJ,SC0027,,,"ITJ, Itajaí/Campo Comandantes",50,2024-03-31T05:00:13+00:00
36386,SIYS,small_airport,"Helibrás Airport",-22.430833816528,-45.479167938232,2759,SA,Brazil,BR,"Minas Gerais",BR-MG,MG,Itajubá,0,,,,,,SIYS,50,2022-11-12T13:25:51+00:00
35574,SDIU,small_airport,"Itu Airport",-23.349722,-47.327778,2231,SA,Brazil,BR,"São Paulo",BR-SP,SP,Itu,0,,,,,,SDIU,50,2018-12-01T13:16:03+00:00
214,SDXE,small_airport,"Chácara Serradinho Airport",-21.264799118041992,-48.35609817504883,2037,SA,Brazil,BR,"São Paulo",BR-SP,SP,Jaboticabal,0,SDXE,,SDXE,,,,50,2008-06-24T09:40:26+00:00
29985,SDJC,small_airport,"Jaboticabal Airport",-21.229755,-48.284212,2018,SA,Brazil,BR,"São Paulo",BR-SP,SP,Jaboticabal,0,SDJC,,SP0064,,,,50,2023-08-25T15:41:28+00:00
187,SDMV,small_airport,"Fazenda Morro Vermelho Airport",-22.275223,-48.60415,1736,SA,Brazil,BR,"São Paulo",BR-SP,SP,Jaú,0,SDMV,,SP0123,,,,50,2024-02-18T01:04:19+00:00
37936,SWKA,small_airport,"Fazenda Canadá Airport",-15.595277786254883,-51.25722122192383,951,SA,Brazil,BR,Goiás,BR-GO,GO,Jussara,0,SWKA,,,,,,50,2008-06-24T09:40:26+00:00
349,SNLY,small_airport,"Lagoa da Prata Airport",-20.061399459838867,-45.554901123046875,2159,SA,Brazil,BR,"Minas Gerais",BR-MG,MG,"Lagoa Da Prata",0,SNLY,,SNLY,,,,50,2008-06-24T09:40:26+00:00
486,SSOL,small_airport,"Padre Israel Airport",-21.240601,-44.963902,3146,SA,Brazil,BR,"Minas Gerais",BR-MG,MG,Lavras,0,SSOL,VRZ,MG0027,https://www.voelavras.com.br/,,"Israel Batista de Carvalho, Lavras Regional",50,2023-07-05T13:28:10+00:00
32187,SDYM,small_airport,"Limeira Airport",-22.603889,-47.411944,2172,SA,Brazil,BR,"São Paulo",BR-SP,SP,Limeira,0,,,,,,"SDYM, QGB",50,2022-07-22T13:07:53+00:00
37597,SSOK,small_airport,"14 Bis Airport",-23.214167,-51.185833,1932,SA,Brazil,BR,Paraná,BR-PR,PR,Londrina,0,SSOK,,,,https://pt.wikipedia.org/wiki/Aer%C3%B3dromo_de_Londrina,,50,2024-05-20T01:22:51+00:00
37711,SSWM,small_airport,"Fazenda Santa Maria Airport",-23.495871,-51.320029,2461,SA,Brazil,BR,Paraná,BR-PR,PR,Londrina,0,SWSA,,PR0098,,,SSWM,50,2022-11-29T15:24:22+00:00
36081,SILC,small_airport,"Municipal Bom Futuro Airport",-13.037861,-55.95025,1358,SA,Brazil,BR,"Mato Grosso",BR-MT,MT,"Lucas do Rio Verde",0,SILC,LVR,MT0025,,https://en.wikipedia.org/wiki/Lucas_do_Rio_Verde_Airport,,50,2021-07-31T17:50:14+00:00
37959,SWMC,small_airport,"Capão da Cruz Airport",-21.458332061767578,-47.887779235839844,1936,SA,Brazil,BR,"São Paulo",BR-SP,SP,"Luís Antônio",0,SWMC,,,,,,50,2008-06-24T09:40:26+00:00
352945,BR-1675,small_airport,"Luís Eduardo Magalhães Airport",-12.06822,-45.71153,2529,SA,Brazil,BR,Bahia,BR-BA,BA,"Luís Eduardo Magalhães",0,SWNB,,BA0182,,,,50,2022-02-24T00:02:52+00:00
35415,SBEC,closed,"Petrobras P-15 Platform Helideck",-22.6775,-40.606098,,SA,Brazil,BR,"Rio de Janeiro",BR-RJ,RJ,Macaé,0,,,,,,"HELIOPS, Oil & Gas, Offshore, Platform, Semisub, FPU, IMO 8754073, Pirauna field, REMOVED, SBEC",50,2024-05-02T05:51:20+00:00
35418,SBMM,heliport,"Petrobras P-20 Platform Helideck",-22.357201,-40.090599,106,SA,Brazil,BR,"Rio de Janeiro",BR-RJ,RJ,Macaé,0,SBMM,,9PPB,,,"HELIOPS, Oil & Gas, Offshore, Platform, Semisub, IMO 8758029, Marlim cluster",50,2024-05-02T05:15:09+00:00
37873,SWFN,small_airport,"Flores Airport",-3.072917,-60.021937,203,SA,Brazil,BR,Amazonas,BR-AM,AM,Manaus,0,SWFN,,,,,"Amazonas Aeroclub",50,2022-09-20T13:28:24+00:00
35666,SDPA,small_airport,"Fazenda Portobello Airport",-22.927133,-44.080185,20,SA,Brazil,BR,"Rio de Janeiro",BR-RJ,RJ,Mangaratiba,0,SDPA,,RJ0016,,,,50,2024-08-03T16:37:27+00:00
337901,BR-1279,small_airport,"Grupo Pronorte Airport",-11.08977,-54.532762,1020,SA,Brazil,BR,"Mato Grosso",BR-MT,MT,Marcelândia,0,SJRP,,MT0481,,,,50,2020-12-17T12:09:10+00:00
37184,SNNI,closed,"Praia do Forte Airport",-12.565371,-38.015812,49,SA,Brazil,BR,Bahia,BR-BA,BA,"Mata De São João",0,,,,,,"SNNI, SNNI",50,2021-10-08T11:35:31+00:00
560,SWME,small_airport,"Mineiros Airport",-17.551399,-52.556702,2707,SA,Brazil,BR,Goiás,BR-GO,GO,Mineiros,0,SWME,,SWME,,https://pt.wikipedia.org/wiki/Aeroporto_de_Mineiros,,50,2024-05-20T01:33:13+00:00
37653,SSSP,small_airport,"Fazenda Santa Delfina Airport",-20.0402774810791,-56.310001373291016,328,SA,Brazil,BR,"Mato Grosso do Sul",BR-MS,MS,Miranda,0,SSSP,,,,,,50,2008-06-24T09:40:26+00:00
149,SDAS,small_airport,"Fazenda Santo Antônio Airport",-21.276203,-51.283088,1141,SA,Brazil,BR,"São Paulo",BR-SP,SP,Mirandópolis,0,SDAS,,SP0079,,,,50,2020-11-19T15:23:07+00:00
251,SJCA,small_airport,"Comandante Vittorio Bonomi Airport",-21.532177,-47.04727,2037,SA,Brazil,BR,"São Paulo",BR-SP,SP,Mococa,0,SJCA,,SP0205,,,,50,2020-09-26T14:31:54+00:00
30146,SDKK,small_airport,"Mococa Airport",-21.487802,-47.034123,2116,SA,Brazil,BR,"São Paulo",BR-SP,SP,Mococa,0,SDKK,,SP0058,,,QOA,50,2023-11-17T11:28:50+00:00
30148,SDMJ,small_airport,"Mogi-mirim Airport",-22.410842,-46.90576,2280,SA,Brazil,BR,"São Paulo",BR-SP,SP,"Mogi Mirim",0,SDMJ,,SP0022,,,,50,2023-12-30T01:44:57+00:00
334990,BR-0724,small_airport,"Condomínio Liberty Airport",-16.449075,-49.012169,3353,SA,Brazil,BR,Goiás,BR-GO,GO,Montividiu,0,SNLL,,GO0191,,,,50,2020-07-04T22:51:36+00:00
480,SSMT,small_airport,"Mostardas Airport",-31.103599548339844,-50.910301208496094,59,SA,Brazil,BR,"Rio Grande do Sul",BR-RS,RS,Mostardas,0,SSMT,,SSMT,,,,50,2008-06-24T09:40:26+00:00
335063,SWHD,small_airport,"Fazenda Ipuitã Airport",-23.022277,-53.901218,1063,SA,Brazil,BR,"Mato Grosso do Sul",BR-MS,MS,Naviraí,0,SWHD,,MS0419,,,,50,2021-03-07T10:54:50+00:00
32042,SWXV,small_airport,"Xavantina Airport",-14.697778,-52.347246,1037,SA,Brazil,BR,"Mato Grosso",BR-MT,MT,"Nova Xavantina",0,SWXV,NOK,MT0013,,https://pt.wikipedia.org/wiki/Aeroporto_de_Nova_Xavantina,SWXN,50,2024-05-20T01:38:22+00:00
30195,SSNH,small_airport,"Novo Hamburgo Airport",-29.69610023498535,-51.08169937133789,66,SA,Brazil,BR,"Rio Grande do Sul",BR-RS,RS,"Novo Hamburgo",0,SSNH,QHV,,,,,50,2008-06-24T09:40:26+00:00
37604,SSOS,small_airport,"Osório Airport",-29.902286,-50.249191,56,SA,Brazil,BR,"Rio Grande do Sul",BR-RS,RS,Osório,0,SSOS,,RS0042,,,,50,2024-05-29T21:21:26+00:00
30229,SNOF,small_airport,"Ouro Fino Airport",-22.297500610351562,-46.3932991027832,2818,SA,Brazil,BR,"Minas Gerais",BR-MG,MG,"Ouro Fino",0,SNOF,,,,,,50,2008-06-24T09:40:26+00:00
495,SSPS,small_airport,"Palmas Airport",-26.472000122070312,-51.97589874267578,3609,SA,Brazil,BR,Paraná,BR-PR,PR,Palmas,0,SSPS,,SSPS,,,,50,2008-06-24T09:40:26+00:00
494,SSPN,small_airport,"Paranaíba Airport",-19.651199340820312,-51.19940185546875,1446,SA,Brazil,BR,"Mato Grosso do Sul",BR-MS,MS,Paranaíba,0,SSPN,PBB,SSPN,,,,50,2008-06-24T09:40:26+00:00
490,SSPI,small_airport,"Paranavaí Airport",-23.089899,-52.488499,1526,SA,Brazil,BR,Paraná,BR-PR,PR,Paranavaí,0,SSPI,PVI,SSPI,,https://en.wikipedia.org/wiki/Paranava%C3%AD_Airport,,50,2024-05-17T07:23:08+00:00
332904,BR-0535,small_airport,"Vitalli Airport",-6.639812,-36.653894,1037,SA,Brazil,BR,"Rio Grande do Norte",BR-RN,RN,Parelhas,0,SDVZ,,RN0006,,,,50,2020-01-03T22:16:37+00:00
30246,SSAQ,small_airport,"Aeroclube Airport",-28.250601,-52.516701,1969,SA,Brazil,BR,"Rio Grande do Sul",BR-RS,RS,"Passo Fundo",0,SSAQ,,RS0036,,,,50,2021-03-25T21:25:22+00:00
363,SNOS,small_airport,"Municipal José Figueiredo Airport",-20.732200622558594,-46.661800384521484,2697,SA,Brazil,BR,"Minas Gerais",BR-MG,MG,Passos,0,SNOS,PSW,SNOS,,,,50,2008-06-24T09:40:26+00:00
37596,SSOI,small_airport,"Pederneiras Airport",-22.307222366333008,-48.771942138671875,1788,SA,Brazil,BR,"São Paulo",BR-SP,SP,Pederneiras,0,SSOI,,,,,,50,2008-06-24T09:40:26+00:00
37831,SWDI,small_airport,"Dois Irmãos Airport",-11.733611106873,-49.333889007568,771,SA,Brazil,BR,Tocantins,BR-TO,TO,Peixe,0,,,,,,SWDI,50,2022-11-12T13:29:32+00:00
368,SNPC,small_airport,"Picos Airport",-7.061385,-41.525871,1099,SA,Brazil,BR,Piauí,BR-PI,PI,Picos,0,SNPC,PCS,PI0009,,https://en.wikipedia.org/wiki/Picos_Airport,,50,2024-05-29T13:41:07+00:00
218,SDZH,small_airport,"Fazenda Santa Helena Airport",-22.890399932861328,-45.49330139160156,1804,SA,Brazil,BR,"São Paulo",BR-SP,SP,Pindamonhangaba,0,SDZH,,SDZH,,,,50,2008-06-24T09:40:26+00:00
36259,SISY,small_airport,"Piraquara Airport",-25.450986,-49.1422,3212,SA,Brazil,BR,Paraná,BR-PR,PR,Piraquara,0,SISY,,PR0052,,,,50,2020-09-04T18:07:34+00:00
36796,SJQE,small_airport,"Graciosa Airport",-25.407713,-49.050479,2999,SA,Brazil,BR,Paraná,BR-PR,PR,Piraquara,0,SWYG,,PR0100,,,"SJQE, Bonacin",50,2020-11-17T17:32:09+00:00
134,SB06,small_airport,"Pirenopolis Centeral Airport",-15.8489,-48.982601,2625,SA,Brazil,BR,Goiás,BR-GO,GO,Pirenópolis,0,SNMH,,SNMH,,,,50,2018-03-11T00:29:21+00:00
600,SWYK,small_airport,"Fazenda Ilha Camargo Airport",-17.062599,-56.583698,358,SA,Brazil,BR,"Mato Grosso",BR-MT,MT,Poconé,0,SWYK,,MT0437,,,,50,2024-05-25T02:02:18+00:00
37821,SWCT,small_airport,"Santa Rosa Pantanal Hotel Airport",-17.366367,-56.791377,364,SA,Brazil,BR,"Mato Grosso",BR-MT,MT,Poconé,0,SWJS,,MT0686,,,"SWCT, Complexo Turístico S. R. Pantanal Hotéis LTDA",50,2022-11-18T06:08:40+00:00
37948,SWLE,closed,"Pontes e Lacerda Airport",-15.231111,-59.34111,1148,SA,Brazil,BR,"Mato Grosso",BR-MT,MT,"Pontes E Lacerda",0,,,,,,SWLE,50,2017-05-27T23:48:46+00:00
37406,SSBN,small_airport,"Belém Novo Airport",-30.188978,-51.182148,16,SA,Brazil,BR,"Rio Grande do Sul",BR-RS,RS,"Porto Alegre",0,SSBN,,RS0002,https://args.com.br/,https://pt.wikipedia.org/wiki/Aeroporto_de_Bel%C3%A9m_Novo,,50,2024-05-20T01:15:44+00:00
46186,SDYS,small_airport,"Aeroportobelo Airport",-27.173611,-48.631111,36,SA,Brazil,BR,"Santa Catarina",BR-SC,SC,"Porto Belo",0,SDYS,,SC0024,,,,50,2024-07-29T10:56:13+00:00
316558,SDEN,small_airport,"Costa Esmeralda Airport",-27.1665,-48.6218,20,SA,Brazil,BR,"Santa Catarina",BR-SC,SC,"Porto Belo",0,SDEN,,SC0023,,,,50,2024-07-28T18:56:08+00:00
493,SSPM,small_airport,"Porto Murtinho Airport",-21.7096,-57.880199,260,SA,Brazil,BR,"Mato Grosso do Sul",BR-MS,MS,"Porto Murtinho",0,SSPM,,SSPM,,https://pt.wikipedia.org/wiki/Aeroporto_de_Porto_Murtinho,,50,2024-05-20T01:23:22+00:00
334705,BR-0669,small_airport,"Fly Club Airport",-16.358824,-39.01528,16,SA,Brazil,BR,Bahia,BR-BA,BA,"Porto Seguro",0,SWFH,,BA0175,,,,50,2020-06-20T01:06:18+00:00
37727,SSXO,small_airport,"Pousada das Águias Airport",-23.288888931274414,-52.12916564941406,1932,SA,Brazil,BR,Paraná,BR-PR,PR,"Presidente Castelo Branco",0,SSXO,,,,,,50,2008-06-24T09:40:26+00:00
381,SNQX,small_airport,"Quixadá Airport",-4.97907,-38.987598,653,SA,Brazil,BR,Ceará,BR-CE,CE,Quixadá,0,SNQX,,SNQX,,https://en.wikipedia.org/wiki/Quixad%C3%A1_Airport,,50,2024-05-20T01:10:12+00:00
338459,BR-1316,small_airport,"Fazenda Bartira Airport",-22.164531,-50.964731,1552,SA,Brazil,BR,"São Paulo",BR-SP,SP,Rancharia,0,SJWB,,SP0220,,,SDQK,50,2020-12-31T13:26:21+00:00
